{
	"beaches" : [
		{ "id" : 1000, "ref" : 9, "name" : "Aber Mawr Bay", "mainImg" : "4199.abermawr-beach-pembrokeshire.jpg", "address" : "Fishguard, Pembrokeshire", "type" : "sand, pebbles", "lon" : -5.085174, "lat" : 51.968983, "loc" : [ -5.085174, 51.968983 ] },
		{ "id" : 1001, "ref" : 10, "name" : "Aberaeron - Harbour (Fourth Groyne North)", "mainImg" : "", "address" : "Aberaeron, Ceredigion", "type" : "harbour, shingle", "lon" : -4.263352, "lat" : 52.24667, "loc" : [ -4.263352, 52.24667 ] },
		{ "id" : 1002, "ref" : 11, "name" : "Aberaeron - North (North of groynes)", "mainImg" : "", "address" : "Aberaeron, Ceredigion", "type" : "harbour, rock", "lon" : -4.253146, "lat" : 52.247757, "loc" : [ -4.253146, 52.247757 ] },
		{ "id" : 1003, "ref" : 13, "name" : "Aberaeron - South (Northern Groyne)", "mainImg" : "", "address" : "Aberaeron, Ceredigion", "type" : "shingle, rock", "lon" : -4.266002, "lat" : 52.241219, "loc" : [ -4.266002, 52.241219 ] },
		{ "id" : 1004, "ref" : 14, "name" : "Aberafan", "mainImg" : "", "address" : "Aberafan, Neath & Port Talbot", "type" : "sand", "lon" : -3.820532, "lat" : 51.590649, "loc" : [ -3.820532, 51.590649 ] },
		{ "id" : 1005, "ref" : 16, "name" : "Aberafan - Margam Sands (Opp. Steel Wks.)", "mainImg" : "", "address" : "Port Talbot, Neath & Port Talbot", "type" : "sand", "lon" : -3.774, "lat" : 51.547, "loc" : [ -3.774, 51.547 ] },
		{ "id" : 1006, "ref" : 17, "name" : "Aberarth", "mainImg" : "", "address" : "Aberaeron, Ceredigion", "type" : "shingle, pebbles", "lon" : -4.2321, "lat" : 52.251488, "loc" : [ -4.2321, 52.251488 ] },
		{ "id" : 1007, "ref" : 18, "name" : "Abercastle", "mainImg" : "", "address" : "Fishguard, Pembrokeshire", "type" : "sand", "lon" : -5.126633, "lat" : 51.957996, "loc" : [ -5.126633, 51.957996 ] },
		{ "id" : 1008, "ref" : 19, "name" : "Aberdaron Beach", "mainImg" : "", "address" : "Pwllheli, Gwynedd", "type" : "sand", "lon" : -4.710123, "lat" : 52.802586, "loc" : [ -4.710123, 52.802586 ] },
		{ "id" : 1009, "ref" : 20, "name" : "Aberdeen - Ballroom", "mainImg" : "geograph-551140-by-andy73.jpg", "address" : "Aberdeen, Aberdeenshire", "type" : "sand, shingle, rock", "lon" : -2.076046, "lat" : 57.155655, "loc" : [ -2.076046, 57.155655 ] },
		{ "id" : 1010, "ref" : 21, "name" : "Aberdeen - Footdee", "mainImg" : "geograph-1574929-by-bill-harrison.jpg", "address" : "Aberdeen, Aberdeenshire", "type" : "sand", "lon" : -2.069422, "lat" : 57.145061, "loc" : [ -2.069422, 57.145061 ] },
		{ "id" : 1011, "ref" : 22, "name" : "Aberdour-Harbour", "mainImg" : "geograph-935720-by-alisdair-macdonald.jpg", "address" : "Aberdour, Fife", "type" : "sand, shingle, mud", "lon" : -3.294208, "lat" : 56.051121, "loc" : [ -3.294208, 56.051121 ] },
		{ "id" : 1012, "ref" : 23, "name" : "Aberdour-Silver Sands", "mainImg" : "geograph-1154024-by-sandy-gemmill.jpg", "address" : "Aberdour, Fife", "type" : "sand, rock", "lon" : -3.283042, "lat" : 56.053215, "loc" : [ -3.283042, 56.053215 ] },
		{ "id" : 1013, "ref" : 24, "name" : "Aberdyfi", "mainImg" : "", "address" : "Aberdyfi, Gwynedd", "type" : "sand", "lon" : -4.054031, "lat" : 52.541855, "loc" : [ -4.054031, 52.541855 ] },
		{ "id" : 1014, "ref" : 25, "name" : "Abereiddy Bay - Slipway", "mainImg" : "", "address" : "Abereiddy, Pembrokeshire", "type" : "sand, pebbles", "lon" : -5.205152, "lat" : 51.936096, "loc" : [ -5.205152, 51.936096 ] },
		{ "id" : 1015, "ref" : 26, "name" : "Abererch", "mainImg" : "", "address" : "Pwllheli, Gwynedd", "type" : "sand", "lon" : -4.374204, "lat" : 52.895485, "loc" : [ -4.374204, 52.895485 ] },
		{ "id" : 1016, "ref" : 27, "name" : "Aberffraw Bay (Traeth Mawr)", "mainImg" : "", "address" : "Aberffraw, Isle of Anglesey", "type" : "sand", "lon" : -4.465785, "lat" : 53.180027, "loc" : [ -4.465785, 53.180027 ] },
		{ "id" : 1017, "ref" : 28, "name" : "Abergele - Pensarn", "mainImg" : "", "address" : "Abergele, Conwy", "type" : "shingle, pebbles", "lon" : -3.583888, "lat" : 53.297153, "loc" : [ -3.583888, 53.297153 ] },
		{ "id" : 1018, "ref" : 29, "name" : "Abergele - Towyn", "mainImg" : "", "address" : "Abergele, Conwy", "type" : "shingle", "lon" : -3.553334, "lat" : 53.302952, "loc" : [ -3.553334, 53.302952 ] },
		{ "id" : 1019, "ref" : 30, "name" : "Aberporth", "mainImg" : "", "address" : "Aberporth, Ceredigion", "type" : "sand", "lon" : -4.54564, "lat" : 52.135693, "loc" : [ -4.54564, 52.135693 ] },
		{ "id" : 1020, "ref" : 32, "name" : "Abersoch", "mainImg" : "", "address" : "Abersoch, Gwynedd", "type" : "sand", "lon" : -4.4982, "lat" : 52.82037, "loc" : [ -4.4982, 52.82037 ] },
		{ "id" : 1021, "ref" : 34, "name" : "Aberystwyth - North", "mainImg" : "", "address" : "Aberystwyth, Ceredigion", "type" : "sand, shingle", "lon" : -4.083908, "lat" : 52.419041, "loc" : [ -4.083908, 52.419041 ] },
		{ "id" : 1022, "ref" : 35, "name" : "Aberystwyth - South", "mainImg" : "", "address" : "Aberystwyth, Ceredigion", "type" : "sand, shingle", "lon" : -4.089448, "lat" : 52.411743, "loc" : [ -4.089448, 52.411743 ] },
		{ "id" : 1023, "ref" : 36, "name" : "Aberystwyth - Tanybwlch Beach", "mainImg" : "", "address" : "Aberystwyth, Ceredigion", "type" : "sand, shingle", "lon" : -4.089108, "lat" : 52.404552, "loc" : [ -4.089108, 52.404552 ] },
		{ "id" : 1024, "ref" : 37, "name" : "Abrahams Hole", "mainImg" : "geograph-1475081-by-tony-atkin.jpg", "address" : "Salcombe, Devon", "type" : "sand", "lon" : -3.746706, "lat" : 50.217442, "loc" : [ -3.746706, 50.217442 ] },
		{ "id" : 1025, "ref" : 38, "name" : "Achmelvich Bay", "mainImg" : "geograph-1375399-by-russel-wills.jpg", "address" : "Lochinver, Highland", "type" : "sand, rock", "lon" : -5.305666, "lat" : 58.17038, "loc" : [ -5.305666, 58.17038 ] },
		{ "id" : 1026, "ref" : 40, "name" : "Afon Wen", "mainImg" : "", "address" : "Pwllheli, Gwynedd", "type" : "sand, shingle", "lon" : -4.315407, "lat" : 52.905731, "loc" : [ -4.315407, 52.905731 ] },
		{ "id" : 1027, "ref" : 41, "name" : "Ainsdale", "mainImg" : "", "address" : "Southport, Sefton", "type" : "sand", "lon" : -3.062627, "lat" : 53.6077, "loc" : [ -3.062627, 53.6077 ] },
		{ "id" : 1028, "ref" : 42, "name" : "Aldeburgh", "mainImg" : "geograph-632449-by-elliott-simpson.jpg", "address" : "Aldeburgh, Suffolk", "type" : "sand, shingle", "lon" : 1.611399, "lat" : 52.155521, "loc" : [ 1.611399, 52.155521 ] },
		{ "id" : 1029, "ref" : 43, "name" : "Aldingham", "mainImg" : "", "address" : "Barrow in Furness, Cumbria", "type" : "sand, pebbles", "lon" : -3.097342, "lat" : 54.128777, "loc" : [ -3.097342, 54.128777 ] },
		{ "id" : 1030, "ref" : 44, "name" : "Allhallows", "mainImg" : "geograph-1015249-by-david-anstiss.jpg", "address" : "Rochester, The Medway Towns", "type" : "sand, mud", "lon" : 0.645716, "lat" : 51.478703, "loc" : [ 0.645716, 51.478703 ] },
		{ "id" : 1031, "ref" : 45, "name" : "Allonby", "mainImg" : "", "address" : "Allonby, Cumbria", "type" : "sand, shingle", "lon" : -3.433268, "lat" : 54.767948, "loc" : [ -3.433268, 54.767948 ] },
		{ "id" : 1032, "ref" : 46, "name" : "Allonby - South", "mainImg" : "geograph-045404-by-nigel-monckton.jpg", "address" : "Allonby, Cumbria", "type" : "sand, shingle", "lon" : -3.451339, "lat" : 54.751553, "loc" : [ -3.451339, 54.751553 ] },
		{ "id" : 1033, "ref" : 47, "name" : "Alnmouth", "mainImg" : "alnmouth.gif", "address" : "Alnmouth, Northumberland", "type" : "sand", "lon" : -1.600576, "lat" : 55.389584, "loc" : [ -1.600576, 55.389584 ] },
		{ "id" : 1034, "ref" : 48, "name" : "Amble Links", "mainImg" : "amble.gif", "address" : "Druridge Bay, Northumberland", "type" : "sand, shingle", "lon" : -1.550786, "lat" : 55.325603, "loc" : [ -1.550786, 55.325603 ] },
		{ "id" : 1035, "ref" : 49, "name" : "Amroth", "mainImg" : "", "address" : "Amroth, Pembrokeshire", "type" : "sand", "lon" : -4.654554, "lat" : 51.729446, "loc" : [ -4.654554, 51.729446 ] },
		{ "id" : 1036, "ref" : 50, "name" : "Anderby", "mainImg" : "anderby_creek.gif", "address" : "Skegness, Lincolnshire", "type" : "sand", "lon" : 0.3285, "lat" : 53.259762, "loc" : [ 0.3285, 53.259762 ] },
		{ "id" : 1037, "ref" : 51, "name" : "Annan", "mainImg" : "geograph-1200898-by-les-hull.jpg", "address" : "Annan, Dumfries & Galloway", "type" : "shingle", "lon" : -3.253036, "lat" : 54.972179, "loc" : [ -3.253036, 54.972179 ] },
		{ "id" : 1038, "ref" : 52, "name" : "Ansteys Cove", "mainImg" : "geograph-1444343-by-roger-cornfoot.jpg", "address" : "Torquay, Devon", "type" : "shingle", "lon" : -3.496709, "lat" : 50.381947, "loc" : [ -3.496709, 50.381947 ] },
		{ "id" : 1039, "ref" : 53, "name" : "Anstruther. Billow Ness", "mainImg" : "geograph-551258-by-jim-bain.jpg", "address" : "Anstruther, Fife", "type" : "sand", "lon" : -2.703123, "lat" : 56.218544, "loc" : [ -2.703123, 56.218544 ] },
		{ "id" : 1040, "ref" : 54, "name" : "Arbroath - Victoria Park", "mainImg" : "geograph-617070-by-kevin-rothwell.jpg", "address" : "Arbroath, Angus", "type" : "sand, rock", "lon" : -2.567871, "lat" : 56.559792, "loc" : [ -2.567871, 56.559792 ] },
		{ "id" : 1041, "ref" : 55, "name" : "Arbroath - West Links", "mainImg" : "geograph-617070-by-kevin-rothwell.jpg", "address" : "Arbroath, Angus", "type" : "sand, rock", "lon" : -2.59361, "lat" : 56.550503, "loc" : [ -2.59361, 56.550503 ] },
		{ "id" : 1042, "ref" : 56, "name" : "Arch Bay", "mainImg" : "dscf0032.jpg", "address" : "St Annes, Alderney", "type" : "sand, rock", "lon" : -2.206535, "lat" : 49.721564, "loc" : [ -2.206535, 49.721564 ] },
		{ "id" : 1043, "ref" : 57, "name" : "Archirondel", "mainImg" : "archirondel.gif", "address" : "St Martin, Jersey", "type" : "shingle", "lon" : -2.029724, "lat" : 49.196595, "loc" : [ -2.029724, 49.196595 ] },
		{ "id" : 1044, "ref" : 58, "name" : "Ardrossan (Boydston)", "mainImg" : "geograph-1540514-by-chris-downer.jpg", "address" : "Ardrossan, North Ayrshire", "type" : "sand", "lon" : -4.836682, "lat" : 55.643211, "loc" : [ -4.836682, 55.643211 ] },
		{ "id" : 1045, "ref" : 59, "name" : "Ardwell Bay", "mainImg" : "geograph-771087-by-duncan-mcnaught.jpg", "address" : "Stranraer, Dumfries & Galloway", "type" : "sand", "lon" : -5.00018, "lat" : 54.76268, "loc" : [ -5.00018, 54.76268 ] },
		{ "id" : 1046, "ref" : 60, "name" : "Arnside", "mainImg" : "geograph-274894-by-arnold-price.jpg", "address" : "Arnside, Cumbria", "type" : "sand", "lon" : -2.835516, "lat" : 54.199192, "loc" : [ -2.835516, 54.199192 ] },
		{ "id" : 1047, "ref" : 61, "name" : "Askam-in-Furness", "mainImg" : "", "address" : "Barrow in Furness, Cumbria", "type" : "sand", "lon" : -3.212496, "lat" : 54.193291, "loc" : [ -3.212496, 54.193291 ] },
		{ "id" : 1048, "ref" : 62, "name" : "Avoch", "mainImg" : "geograph-362602-by-dave-fergusson.jpg", "address" : "Inverness, Highland", "type" : "sand, shingle", "lon" : -4.168241, "lat" : 57.566074, "loc" : [ -4.168241, 57.566074 ] },
		{ "id" : 1049, "ref" : 63, "name" : "Ayr (South)", "mainImg" : "geograph-1587305-by-wfmillar.jpg", "address" : "Ayr, South Ayrshire", "type" : "sand", "lon" : -4.642322, "lat" : 55.462185, "loc" : [ -4.642322, 55.462185 ] },
		{ "id" : 1050, "ref" : 64, "name" : "Babbacombe Bay. Torquay", "mainImg" : "geograph-906463-by-derek-harper.jpg", "address" : "Torquay, Devon", "type" : "sand", "lon" : -3.508214, "lat" : 50.478493, "loc" : [ -3.508214, 50.478493 ] },
		{ "id" : 1051, "ref" : 65, "name" : "Baglan. Neath", "mainImg" : "geograph-1513030-by-helen-hyatt.jpg", "address" : "Neath, Neath & Port Talbot", "type" : "sand", "lon" : -3.827963, "lat" : 51.595928, "loc" : [ -3.827963, 51.595928 ] },
		{ "id" : 1052, "ref" : 69, "name" : "Ballycastle", "mainImg" : "geograph-470238-by-anne-burgess.jpg", "address" : "Ballycastle, Antrim", "type" : "sand", "lon" : -6.245728, "lat" : 55.205103, "loc" : [ -6.245728, 55.205103 ] },
		{ "id" : 1053, "ref" : 70, "name" : "Ballygally", "mainImg" : "geograph-428954-by-albert-bridge.jpg", "address" : "Ballygally, Antrim", "type" : "sand", "lon" : -5.855026, "lat" : 54.898223, "loc" : [ -5.855026, 54.898223 ] },
		{ "id" : 1054, "ref" : 71, "name" : "Ballyhalbert", "mainImg" : "geograph-806599-by-ross.jpg", "address" : "Ballyhalbert, Down", "type" : "sand", "lon" : -5.460892, "lat" : 54.497056, "loc" : [ -5.460892, 54.497056 ] },
		{ "id" : 1055, "ref" : 73, "name" : "Ballyholme", "mainImg" : "geograph-1672641-by-ross.jpg", "address" : "Bangor, Down", "type" : "sand", "lon" : -5.641651, "lat" : 54.66626, "loc" : [ -5.641651, 54.66626 ] },
		{ "id" : 1056, "ref" : 74, "name" : "Ballywalter", "mainImg" : "geograph-806707-by-ross.jpg", "address" : "Ballywalter, Down", "type" : "sand", "lon" : -5.481491, "lat" : 54.540499, "loc" : [ -5.481491, 54.540499 ] },
		{ "id" : 1057, "ref" : 75, "name" : "Balmedie Country Park", "mainImg" : "geograph-745492-by-martyn-gorman.jpg", "address" : "Aberdeen, Aberdeenshire", "type" : "sand", "lon" : -2.031988, "lat" : 57.253239, "loc" : [ -2.031988, 57.253239 ] },
		{ "id" : 1058, "ref" : 76, "name" : "Bamburgh Castle", "mainImg" : "bamburgh.gif", "address" : "Seahouses, Northumberland", "type" : "sand", "lon" : -1.706288, "lat" : 55.61095, "loc" : [ -1.706288, 55.61095 ] },
		{ "id" : 1059, "ref" : 77, "name" : "Banff Bridge", "mainImg" : "geograph-1471183-by-alisdair-mclean.jpg", "address" : "Banff, Aberdeenshire", "type" : "sand, shingle", "lon" : -2.518616, "lat" : 57.664822, "loc" : [ -2.518616, 57.664822 ] },
		{ "id" : 1060, "ref" : 79, "name" : "Bantham", "mainImg" : "geograph-1438587-by-tony-atkin.jpg", "address" : "Kingsbridge, Devon", "type" : "sand", "lon" : -3.877653, "lat" : 50.278366, "loc" : [ -3.877653, 50.278366 ] },
		{ "id" : 1061, "ref" : 80, "name" : "Barafundle Bay", "mainImg" : "4204.barafundel-by-christopher oliver.jpg", "address" : "Stackpole Quay, Pembrokeshire", "type" : "sand", "lon" : -4.900871, "lat" : 51.617481, "loc" : [ -4.900871, 51.617481 ] },
		{ "id" : 1062, "ref" : 81, "name" : "Barassie", "mainImg" : "geograph-762056-by-wfmillar.jpg", "address" : "Troon, South Ayrshire", "type" : "sand", "lon" : -4.65747, "lat" : 55.555538, "loc" : [ -4.65747, 55.555538 ] },
		{ "id" : 1063, "ref" : 82, "name" : "Bardsea", "mainImg" : "geograph-1477310-by-dennis-turner.jpg", "address" : "Ulverston, Cumbria", "type" : "sand, shingle", "lon" : -3.072048, "lat" : 54.156868, "loc" : [ -3.072048, 54.156868 ] },
		{ "id" : 1064, "ref" : 84, "name" : "Barmouth", "mainImg" : "", "address" : "Barmouth, Gwynedd", "type" : "sand", "lon" : -4.060721, "lat" : 52.722488, "loc" : [ -4.060721, 52.722488 ] },
		{ "id" : 1065, "ref" : 85, "name" : "Barmston", "mainImg" : "barmston.gif", "address" : "Bridlington, East Riding of Yorkshire", "type" : "sand", "lon" : -0.211047, "lat" : 54.017097, "loc" : [ -0.211047, 54.017097 ] },
		{ "id" : 1066, "ref" : 86, "name" : "Barrow-in-Furness", "mainImg" : "", "address" : "Barrow in Furness, Cumbria", "type" : "sand, shingle, mud", "lon" : -3.231621, "lat" : 54.114887, "loc" : [ -3.231621, 54.114887 ] },
		{ "id" : 1067, "ref" : 87, "name" : "Barry - Little Island Bay", "mainImg" : "", "address" : "Cardiff, Vale of Glamorgan", "type" : "sand", "lon" : -3.280617, "lat" : 51.387348, "loc" : [ -3.280617, 51.387348 ] },
		{ "id" : 1068, "ref" : 88, "name" : "Barry - Watch House Bay", "mainImg" : "", "address" : "Cardiff, Vale of Glamorgan", "type" : "sand", "lon" : -3.284922, "lat" : 51.387299, "loc" : [ -3.284922, 51.387299 ] },
		{ "id" : 1069, "ref" : 89, "name" : "Beacon Cove", "mainImg" : "geograph-830076-by-derek-harper.jpg", "address" : "Babbacombe, Devon", "type" : "pebbles", "lon" : -3.522324, "lat" : 50.456902, "loc" : [ -3.522324, 50.456902 ] },
		{ "id" : 1070, "ref" : 90, "name" : "Beadnell Bay", "mainImg" : "beadnell.gif", "address" : "Beadnell, Northumberland", "type" : "bay, sand", "lon" : -1.630665, "lat" : 55.548744, "loc" : [ -1.630665, 55.548744 ] },
		{ "id" : 1071, "ref" : 91, "name" : "Beaumaris", "mainImg" : "", "address" : "Beaumaris, Isle of Anglesey", "type" : "sand, shingle, mud", "lon" : -4.084961, "lat" : 53.26247, "loc" : [ -4.084961, 53.26247 ] },
		{ "id" : 1072, "ref" : 92, "name" : "Beauport", "mainImg" : "beauport.gif", "address" : "St Brelade, Jersey", "type" : "sand", "lon" : -2.206364, "lat" : 49.17898, "loc" : [ -2.206364, 49.17898 ] },
		{ "id" : 1073, "ref" : 93, "name" : "Beer", "mainImg" : "geograph-001965-by-ben-gamble.jpg", "address" : "Seaton, Devon", "type" : "sand, pebbles", "lon" : -3.088223, "lat" : 50.695889, "loc" : [ -3.088223, 50.695889 ] },
		{ "id" : 1074, "ref" : 94, "name" : "Beesands", "mainImg" : "geograph-1490760-by-derek-harper.jpg", "address" : "Salcombe, Devon", "type" : "shingle", "lon" : -3.655375, "lat" : 50.252064, "loc" : [ -3.655375, 50.252064 ] },
		{ "id" : 1075, "ref" : 95, "name" : "Bembridge", "mainImg" : "geograph-1114927-by-barry-shimmon.jpg", "address" : "Ryde, Isle of Wight", "type" : "sand, rock", "lon" : -1.069822, "lat" : 50.688263, "loc" : [ -1.069822, 50.688263 ] },
		{ "id" : 1076, "ref" : 96, "name" : "Bendricks Beach", "mainImg" : "", "address" : "Barry, Vale of Glamorgan", "type" : "sand, rock", "lon" : -3.242013, "lat" : 51.394959, "loc" : [ -3.242013, 51.394959 ] },
		{ "id" : 1077, "ref" : 97, "name" : "Benllech", "mainImg" : "", "address" : "Benllech, Isle of Anglesey", "type" : "sand", "lon" : -4.211902, "lat" : 53.319176, "loc" : [ -4.211902, 53.319176 ] },
		{ "id" : 1078, "ref" : 98, "name" : "Berrow - North of Unity Farm", "mainImg" : "geograph-1527860-by-steve-daniels.jpg", "address" : "Burnham on Sea, Somerset", "type" : "sand, mud", "lon" : -3.013891, "lat" : 51.284744, "loc" : [ -3.013891, 51.284744 ] },
		{ "id" : 1079, "ref" : 99, "name" : "Berrow - South", "mainImg" : "geograph-1531108-by-steve-daniels.jpg", "address" : "Burnham on Sea, Somerset", "type" : "sand", "lon" : -3.017995, "lat" : 51.275707, "loc" : [ -3.017995, 51.275707 ] },
		{ "id" : 1080, "ref" : 101, "name" : "Berwick-upon-Tweed", "mainImg" : "berwick.gif", "address" : "Berwick upon Tweed, Northumberland", "type" : "sand", "lon" : -1.987255, "lat" : 55.768566, "loc" : [ -1.987255, 55.768566 ] },
		{ "id" : 1081, "ref" : 102, "name" : "Bexhill", "mainImg" : "geograph-295353-by-nigel-stickells.jpg", "address" : "Bexhill, East Sussex", "type" : "sand, shingle", "lon" : 0.467038, "lat" : 50.834072, "loc" : [ 0.467038, 50.834072 ] },
		{ "id" : 1082, "ref" : 103, "name" : "Bigbury on Sea (North)", "mainImg" : "4183.geograph-221695-by-hugh-venables.jpg", "address" : "Bigbury, Devon", "type" : "sand", "lon" : -3.89578, "lat" : 50.282574, "loc" : [ -3.89578, 50.282574 ] },
		{ "id" : 1083, "ref" : 104, "name" : "Bigbury on Sea (South)", "mainImg" : "4184.geograph-221695-by-hugh-venables.jpg", "address" : "Bigbury, Devon", "type" : "sand", "lon" : -3.893631, "lat" : 50.281261, "loc" : [ -3.893631, 50.281261 ] },
		{ "id" : 1084, "ref" : 105, "name" : "Birling Gap", "mainImg" : "geograph-029348-by-alan-rolfe.jpg", "address" : "East Dean, East Sussex", "type" : "sand, shingle", "lon" : 0.199943, "lat" : 50.742271, "loc" : [ 0.199943, 50.742271 ] },
		{ "id" : 1085, "ref" : 106, "name" : "Bispham", "mainImg" : "geograph-359454-by-mr-t.jpg", "address" : "Blackpool, Lancashire", "type" : "sand", "lon" : -3.053515, "lat" : 53.848701, "loc" : [ -3.053515, 53.848701 ] },
		{ "id" : 1086, "ref" : 107, "name" : "Blackhall", "mainImg" : "blackhall.gif", "address" : "Hartlepool, Durham", "type" : "sand, rock", "lon" : -1.266684, "lat" : 54.746342, "loc" : [ -1.266684, 54.746342 ] },
		{ "id" : 1087, "ref" : 108, "name" : "Blackpool - Central", "mainImg" : "geograph-1592130-by-steve-daniels.jpg", "address" : "Blackpool, Lancashire", "type" : "sand", "lon" : -3.056909, "lat" : 53.80228, "loc" : [ -3.056909, 53.80228 ] },
		{ "id" : 1088, "ref" : 109, "name" : "Blackpool - North", "mainImg" : "geograph-534696-by-rib.jpg", "address" : "Blackpool, Lancashire", "type" : "sand", "lon" : -3.056334, "lat" : 53.815865, "loc" : [ -3.056334, 53.815865 ] },
		{ "id" : 1089, "ref" : 110, "name" : "Blackpool - South", "mainImg" : "geograph-1592121-by-steve-daniels.jpg", "address" : "Blackpool, Lancashire", "type" : "sand", "lon" : -3.059189, "lat" : 53.790043, "loc" : [ -3.059189, 53.790043 ] },
		{ "id" : 1090, "ref" : 111, "name" : "Blackpool Sands. Stoke Fleming", "mainImg" : "geograph-910684-by-kate-jewell.jpg", "address" : "Dartmouth, Devon", "type" : "sand", "lon" : -3.608521, "lat" : 50.318832, "loc" : [ -3.608521, 50.318832 ] },
		{ "id" : 1091, "ref" : 112, "name" : "Blackrock", "mainImg" : "geograph-1470174-by-high-view.jpg", "address" : "Bude, Cornwall", "type" : "sand", "lon" : -4.556803, "lat" : 50.787163, "loc" : [ -4.556803, 50.787163 ] },
		{ "id" : 1092, "ref" : 113, "name" : "Blackwaterfoot", "mainImg" : "geograph-862787-by-hamish-kirkpatrick.jpg", "address" : "Brodick, South Ayrshire", "type" : "sand, shingle, rock", "lon" : -5.333654, "lat" : 55.504822, "loc" : [ -5.333654, 55.504822 ] },
		{ "id" : 1093, "ref" : 114, "name" : "Blue Anchor West", "mainImg" : "geograph-1386897-by-steve-daniels.jpg", "address" : "Dunster, Somerset", "type" : "sand, shingle, mud", "lon" : -3.397969, "lat" : 51.18185, "loc" : [ -3.397969, 51.18185 ] },
		{ "id" : 1094, "ref" : 115, "name" : "Blue Lagoon - Abereiddy Bay", "mainImg" : "", "address" : "Abereiddy, Pembrokeshire", "type" : "sand, pebbles", "lon" : -5.207839, "lat" : 51.93729, "loc" : [ -5.207839, 51.93729 ] },
		{ "id" : 1095, "ref" : 116, "name" : "Blundellsands", "mainImg" : "geograph-1073631-by-john-darch.jpg", "address" : "Bootle, Sefton", "type" : "sand", "lon" : -3.047562, "lat" : 53.487366, "loc" : [ -3.047562, 53.487366 ] },
		{ "id" : 1096, "ref" : 117, "name" : "Blyth South Beach", "mainImg" : "blyth.gif", "address" : "Blyth, Northumberland", "type" : "sand", "lon" : -1.495204, "lat" : 55.108803, "loc" : [ -1.495204, 55.108803 ] },
		{ "id" : 1097, "ref" : 118, "name" : "Bognor Regis", "mainImg" : "geograph-1408387-by-steve-daniels.jpg", "address" : "Bognor Regis, West Sussex", "type" : "shingle", "lon" : -0.6907059999999999, "lat" : 50.778164, "loc" : [ -0.6907059999999999, 50.778164 ] },
		{ "id" : 1098, "ref" : 119, "name" : "Bognor Regis - East", "mainImg" : "geograph-1000098-by-colin-babb.jpg", "address" : "Bognor Regis, West Sussex", "type" : "shingle", "lon" : -0.6669999999999999, "lat" : 50.783, "loc" : [ -0.6669999999999999, 50.783 ] },
		{ "id" : 1099, "ref" : 120, "name" : "Bognor Regis - Pier", "mainImg" : "geograph-088313-by-jan.jpg", "address" : "Bognor Regis, West Sussex", "type" : "shingle", "lon" : -0.6707639999999999, "lat" : 50.780632, "loc" : [ -0.6707639999999999, 50.780632 ] },
		{ "id" : 1100, "ref" : 122, "name" : "Bonne Nuit", "mainImg" : "bonne-nuit.gif", "address" : "St John, Jersey", "type" : "harbour, sand", "lon" : -2.136841, "lat" : 49.256482, "loc" : [ -2.136841, 49.256482 ] },
		{ "id" : 1101, "ref" : 123, "name" : "Boobys Beach", "mainImg" : "geograph-312788-by-tony-atkin.jpg", "address" : "Padstow, Cornwall", "type" : "sand", "lon" : -5.026095, "lat" : 50.538425, "loc" : [ -5.026095, 50.538425 ] },
		{ "id" : 1102, "ref" : 124, "name" : "Bordeaux", "mainImg" : "bordeaux.gif", "address" : "St Sampson's, Guernsey", "type" : "sand, pebbles", "lon" : -2.191086, "lat" : 49.183693, "loc" : [ -2.191086, 49.183693 ] },
		{ "id" : 1103, "ref" : 125, "name" : "Borth", "mainImg" : "", "address" : "Borth, Ceredigion", "type" : "sand, shingle", "lon" : -4.053408, "lat" : 52.490612, "loc" : [ -4.053408, 52.490612 ] },
		{ "id" : 1104, "ref" : 126, "name" : "Boscastle", "mainImg" : "geograph-1466462-by-chris-downer.jpg", "address" : "Boscastle, Cornwall", "type" : "harbour", "lon" : -4.700225, "lat" : 50.690369, "loc" : [ -4.700225, 50.690369 ] },
		{ "id" : 1105, "ref" : 127, "name" : "Bossiney Haven", "mainImg" : "geograph-1478893-by-tony-atkin.jpg", "address" : "Tintagel, Cornwall", "type" : "sand", "lon" : -4.737361, "lat" : 50.671513, "loc" : [ -4.737361, 50.671513 ] },
		{ "id" : 1106, "ref" : 128, "name" : "Botany Bay", "mainImg" : "geograph-518924-by-philip-halling.jpg", "address" : "Broadstairs, Kent", "type" : "bay, sand, rock", "lon" : 1.437055, "lat" : 51.388886, "loc" : [ 1.437055, 51.388886 ] },
		{ "id" : 1107, "ref" : 129, "name" : "Bouley Bay", "mainImg" : "bouley.gif", "address" : "Trinity, Jersey", "type" : "sand", "lon" : -2.080536, "lat" : 49.242901, "loc" : [ -2.080536, 49.242901 ] },
		{ "id" : 1108, "ref" : 130, "name" : "Bournemouth - Alum Chine", "mainImg" : "geograph-1448170-by-m-walden.jpg", "address" : "Bournemouth, Dorset", "type" : "bay, sand, shingle", "lon" : -1.892351, "lat" : 50.711708, "loc" : [ -1.892351, 50.711708 ] },
		{ "id" : 1109, "ref" : 131, "name" : "Bournemouth - Boscombe Pier", "mainImg" : "geograph-064189-by-peter-facey.jpg", "address" : "Bournemouth, Dorset", "type" : "bay, sand", "lon" : -1.841328, "lat" : 50.718849, "loc" : [ -1.841328, 50.718849 ] },
		{ "id" : 1110, "ref" : 132, "name" : "Bournemouth - Durley Chine", "mainImg" : "geograph-704266-by-andy-potter.jpg", "address" : "Bournemouth, Dorset", "type" : "bay, sand, shingle", "lon" : -1.888804, "lat" : 50.711708, "loc" : [ -1.888804, 50.711708 ] },
		{ "id" : 1111, "ref" : 133, "name" : "Bournemouth - East Cliff", "mainImg" : "geograph-604497-by-chris-downer.jpg", "address" : "Bournemouth, Dorset", "type" : "bay, sand", "lon" : -1.864002, "lat" : 50.717079, "loc" : [ -1.864002, 50.717079 ] },
		{ "id" : 1112, "ref" : 134, "name" : "Bournemouth - Fishermans Walk", "mainImg" : "4213.fisherman's walk-by-geoffrey-black.jpg", "address" : "Bournemouth, Dorset", "type" : "bay, sand, shingle", "lon" : -1.818651, "lat" : 50.720612, "loc" : [ -1.818651, 50.720612 ] },
		{ "id" : 1113, "ref" : 135, "name" : "Bournemouth - Hengistbury Head", "mainImg" : "geograph-1234528-by-chris-gunns.jpg", "address" : "Bournemouth, Dorset", "type" : "sand, pebbles", "lon" : -1.759179, "lat" : 50.714207, "loc" : [ -1.759179, 50.714207 ] },
		{ "id" : 1114, "ref" : 136, "name" : "Bournemouth - Hengistbury West", "mainImg" : "geograph-608066-by-trish-steel.jpg", "address" : "Bournemouth, Dorset", "type" : "shingle, pebbles", "lon" : -1.769801, "lat" : 50.71603, "loc" : [ -1.769801, 50.71603 ] },
		{ "id" : 1115, "ref" : 137, "name" : "Bournemouth - Manor Steps", "mainImg" : "geograph-064189-by-peter-facey.jpg", "address" : "Bournemouth, Dorset", "type" : "bay, sand", "lon" : -1.840553, "lat" : 50.720098, "loc" : [ -1.840553, 50.720098 ] },
		{ "id" : 1116, "ref" : 138, "name" : "Bournemouth - Pier", "mainImg" : "geograph-1250213-by-steve-daniels.jpg", "address" : "Bournemouth, Dorset", "type" : "bay, sand", "lon" : -1.874627, "lat" : 50.71484, "loc" : [ -1.874627, 50.71484 ] },
		{ "id" : 1117, "ref" : 139, "name" : "Bournemouth - Southbourne", "mainImg" : "geograph-1314626-by-trish-steel.jpg", "address" : "Bournemouth, Dorset", "type" : "sand, shingle", "lon" : -1.790323, "lat" : 50.719662, "loc" : [ -1.790323, 50.719662 ] },
		{ "id" : 1118, "ref" : 140, "name" : "Bovisand Bay", "mainImg" : "geograph-898766-by-tony-atkin.jpg", "address" : "Plymouth, Devon", "type" : "sand", "lon" : -4.118388, "lat" : 50.334957, "loc" : [ -4.118388, 50.334957 ] },
		{ "id" : 1119, "ref" : 141, "name" : "Bowleaze Cove", "mainImg" : "geograph-024307-by-chris-collard.jpg", "address" : "Weymouth, Dorset", "type" : "bay, sand, shingle, pebbles, rock", "lon" : -2.418309, "lat" : 50.634563, "loc" : [ -2.418309, 50.634563 ] },
		{ "id" : 1120, "ref" : 142, "name" : "Bracelet Bay", "mainImg" : "geograph-1177327-by-robert-cuthill.jpg", "address" : "Mumbles, Swansea", "type" : "sand, shingle", "lon" : -3.976822, "lat" : 51.565636, "loc" : [ -3.976822, 51.565636 ] },
		{ "id" : 1121, "ref" : 143, "name" : "Bracklesham Bay", "mainImg" : "geograph-040314-by-ron-strutt.jpg", "address" : "Bracklesham, West Sussex", "type" : "sand, shingle", "lon" : -0.8614999999999999, "lat" : 50.76013, "loc" : [ -0.8614999999999999, 50.76013 ] },
		{ "id" : 1122, "ref" : 144, "name" : "Brandy Cove", "mainImg" : "", "address" : "Swansea, Swansea", "type" : "pebbles, rock", "lon" : -4.041823, "lat" : 51.567223, "loc" : [ -4.041823, 51.567223 ] },
		{ "id" : 1123, "ref" : 145, "name" : "Branscombe", "mainImg" : "geograph-240956-by-derek-harper.jpg", "address" : "Lyme Regis, Devon", "type" : "pebbles", "lon" : -3.121276, "lat" : 50.686581, "loc" : [ -3.121276, 50.686581 ] },
		{ "id" : 1124, "ref" : 146, "name" : "Braye Bay", "mainImg" : "dscf0027.jpg", "address" : "St Annes, Alderney", "type" : "sand", "lon" : -2.196579, "lat" : 49.721191, "loc" : [ -2.196579, 49.721191 ] },
		{ "id" : 1125, "ref" : 147, "name" : "Braystones", "mainImg" : "geograph-572658-by-andrew-smith.jpg", "address" : "Egremont, Cumbria", "type" : "sand, shingle", "lon" : -3.534179, "lat" : 54.435028, "loc" : [ -3.534179, 54.435028 ] },
		{ "id" : 1126, "ref" : 148, "name" : "Brean", "mainImg" : "geograph-1250374-by-william.jpg", "address" : "Burnham on Sea, Somerset", "type" : "sand, mud", "lon" : -3.010379, "lat" : 51.32074, "loc" : [ -3.010379, 51.32074 ] },
		{ "id" : 1127, "ref" : 149, "name" : "Brean Beach at Brean Farm", "mainImg" : "geograph-584959-by-pauline-burden.jpg", "address" : "Brean, Somerset", "type" : "sand, mud", "lon" : -3.010379, "lat" : 51.32074, "loc" : [ -3.010379, 51.32074 ] },
		{ "id" : 1128, "ref" : 150, "name" : "Bridlington - North Beach", "mainImg" : "4188.geograph-1348651-by-andy-beecroft.jpg", "address" : "Bridlington, East Riding of Yorkshire", "type" : "sand, pebbles", "lon" : -0.180524, "lat" : 54.086758, "loc" : [ -0.180524, 54.086758 ] },
		{ "id" : 1129, "ref" : 151, "name" : "Bridlington - South Beach", "mainImg" : "bridlington_south.gif", "address" : "Bridlington, East Riding of Yorkshire", "type" : "sand", "lon" : -0.194705, "lat" : 54.077084, "loc" : [ -0.194705, 54.077084 ] },
		{ "id" : 1130, "ref" : 152, "name" : "Brighouse Bay. Borgue", "mainImg" : "geograph-434595-by-ian-purdham.jpg", "address" : "Kirkcudbright, Dumfries & Galloway", "type" : "sand, rock", "lon" : -4.122764, "lat" : 54.785439, "loc" : [ -4.122764, 54.785439 ] },
		{ "id" : 1131, "ref" : 153, "name" : "Brightlingsea", "mainImg" : "geograph-1141657-by-bob-jones.jpg", "address" : "Brightlingsea, Essex", "type" : "sand", "lon" : 1.01199, "lat" : 51.805019, "loc" : [ 1.01199, 51.805019 ] },
		{ "id" : 1132, "ref" : 154, "name" : "Brighton - Kemp Town", "mainImg" : "geograph-1117529-by-simon-carey.jpg", "address" : "Brighton, East Sussex", "type" : "sand, shingle", "lon" : -0.121753, "lat" : 50.815804, "loc" : [ -0.121753, 50.815804 ] },
		{ "id" : 1133, "ref" : 155, "name" : "Brighton - Palace Pier", "mainImg" : "geograph-289063-by-jarzyn.jpg", "address" : "Brighton, East Sussex", "type" : "shingle", "lon" : -0.145, "lat" : 50.82, "loc" : [ -0.145, 50.82 ] },
		{ "id" : 1134, "ref" : 156, "name" : "Brighton - Portobello", "mainImg" : "geograph-669664-by-simon-carey.jpg", "address" : "Brighton, East Sussex", "type" : "shingle", "lon" : -0.041835, "lat" : 50.791553, "loc" : [ -0.041835, 50.791553 ] },
		{ "id" : 1135, "ref" : 159, "name" : "Broadhaven", "mainImg" : "", "address" : "Broad Haven, Pembrokeshire", "type" : "sand", "lon" : -5.101356, "lat" : 51.781464, "loc" : [ -5.101356, 51.781464 ] },
		{ "id" : 1136, "ref" : 160, "name" : "Broadhaven South", "mainImg" : "geograph-321166-by-philip-halling.jpg", "address" : "Broad Haven, Pembrokeshire", "type" : "sand", "lon" : -4.918988, "lat" : 51.60714, "loc" : [ -4.918988, 51.60714 ] },
		{ "id" : 1137, "ref" : 1223, "name" : "Broadsands", "mainImg" : "", "address" : "North Berwick, East Lothian", "type" : "", "lon" : -2.778883, "lat" : 56.065243, "loc" : [ -2.778883, 56.065243 ] },
		{ "id" : 1138, "ref" : 161, "name" : "Broadsands Beach", "mainImg" : "geograph-1386763-by-tom-jolliffe.jpg", "address" : "Paignton, Torbay", "type" : "sand", "lon" : -3.55236, "lat" : 50.405949, "loc" : [ -3.55236, 50.405949 ] },
		{ "id" : 1139, "ref" : 163, "name" : "Broadstairs - Viking Bay", "mainImg" : "geograph-039663-by-john-smitten.jpg", "address" : "Broadstairs, Kent", "type" : "bay, harbour, sand, rock", "lon" : 1.445019, "lat" : 51.357166, "loc" : [ 1.445019, 51.357166 ] },
		{ "id" : 1140, "ref" : 164, "name" : "Brodick Bay", "mainImg" : "geograph-1506623-by-nick-macneill.jpg", "address" : "Brodick, North Ayrshire", "type" : "sand", "lon" : -5.14968, "lat" : 55.581623, "loc" : [ -5.14968, 55.581623 ] },
		{ "id" : 1141, "ref" : 165, "name" : "Broomhill Sands", "mainImg" : "geograph-067614-by-iain-macaulay.jpg", "address" : "Rye, East Sussex", "type" : "sand, shingle", "lon" : 0.8234429999999999, "lat" : 50.925835, "loc" : [ 0.8234429999999999, 50.925835 ] },
		{ "id" : 1142, "ref" : 166, "name" : "Brora Beach", "mainImg" : "geograph-238232-by-phil-williams.jpg", "address" : "Brora, Highland", "type" : "sand, shingle, rock", "lon" : -3.841551, "lat" : 58.011238, "loc" : [ -3.841551, 58.011238 ] },
		{ "id" : 1143, "ref" : 167, "name" : "Broughton Bay", "mainImg" : "geograph-217377-by-linda-bailey.jpg", "address" : "Llangennith, Swansea", "type" : "sand", "lon" : -4.283689, "lat" : 51.613132, "loc" : [ -4.283689, 51.613132 ] },
		{ "id" : 1144, "ref" : 168, "name" : "Broughty Ferry", "mainImg" : "geograph-1057017-by-bob-embleton.jpg", "address" : "Broughty Ferry, Dundee", "type" : "sand", "lon" : -2.861863, "lat" : 56.464649, "loc" : [ -2.861863, 56.464649 ] },
		{ "id" : 1145, "ref" : 169, "name" : "Brown`s Bay", "mainImg" : "geograph-355973-by-wilson-adams.jpg", "address" : "Larne, Antrim", "type" : "sand", "lon" : -5.745163, "lat" : 54.819969, "loc" : [ -5.745163, 54.819969 ] },
		{ "id" : 1146, "ref" : 170, "name" : "Buckie. Strathlene", "mainImg" : "geograph-229978-by-anne-burgess.jpg", "address" : "Buckie, Moray", "type" : "sand", "lon" : -2.925999, "lat" : 57.690601, "loc" : [ -2.925999, 57.690601 ] },
		{ "id" : 1147, "ref" : 171, "name" : "Bude - Crooklets", "mainImg" : "geograph-093483-by-william-wells.jpg", "address" : "Bude, Cornwall", "type" : "sand", "lon" : -4.552897, "lat" : 50.835281, "loc" : [ -4.552897, 50.835281 ] },
		{ "id" : 1148, "ref" : 172, "name" : "Bude - Sandymouth", "mainImg" : "geograph-422586-by-philip-halling.jpg", "address" : "Bude, Cornwall", "type" : "sand", "lon" : -4.555104, "lat" : 50.860062, "loc" : [ -4.555104, 50.860062 ] },
		{ "id" : 1149, "ref" : 173, "name" : "Bude - Summerleaze", "mainImg" : "geograph-1516245-by-steve-daniels.jpg", "address" : "Bude, Cornwall", "type" : "sand", "lon" : -4.550642, "lat" : 50.830475, "loc" : [ -4.550642, 50.830475 ] },
		{ "id" : 1150, "ref" : 174, "name" : "Budleigh Salterton", "mainImg" : "geograph-1715676-by-eugene-birchall.jpg", "address" : "Exmouth, Devon", "type" : "pebbles", "lon" : -3.315747, "lat" : 50.628784, "loc" : [ -3.315747, 50.628784 ] },
		{ "id" : 1151, "ref" : 175, "name" : "Bull Bay", "mainImg" : "geograph-091248-by-geoff-barber.jpg", "address" : "Amlwch, Isle of Anglesey", "type" : "shingle, rock", "lon" : -4.36755, "lat" : 53.423546, "loc" : [ -4.36755, 53.423546 ] },
		{ "id" : 1152, "ref" : 177, "name" : "Burgh Island", "mainImg" : "geograph-1465392-by-chris-downer.jpg", "address" : "Bigbury, Devon", "type" : "sand", "lon" : -3.894938, "lat" : 50.278988, "loc" : [ -3.894938, 50.278988 ] },
		{ "id" : 1153, "ref" : 178, "name" : "Burghead", "mainImg" : "geograph-246813-by-richard-slessor.jpg", "address" : "Elgin, Moray", "type" : "sand", "lon" : -3.493158, "lat" : 57.69326, "loc" : [ -3.493158, 57.69326 ] },
		{ "id" : 1154, "ref" : 179, "name" : "Burnham-on-Sea - Jetty", "mainImg" : "geograph-1386845-by-steve-daniels.jpg", "address" : "Burnham on Sea, Somerset", "type" : "sand", "lon" : -2.999871, "lat" : 51.233597, "loc" : [ -2.999871, 51.233597 ] },
		{ "id" : 1155, "ref" : 180, "name" : "Burnham-on-Sea - Yacht Club", "mainImg" : "geograph-699866-by-peter-levy.jpg", "address" : "Burnham on Sea, Somerset", "type" : "sand, mud", "lon" : -3.001148, "lat" : 51.226398, "loc" : [ -3.001148, 51.226398 ] },
		{ "id" : 1156, "ref" : 181, "name" : "Burntisland", "mainImg" : "geograph-1458528-by-richard-webb.jpg", "address" : "Burntisland, Fife", "type" : "sand, rock", "lon" : -3.218956, "lat" : 56.05809, "loc" : [ -3.218956, 56.05809 ] },
		{ "id" : 1157, "ref" : 182, "name" : "Burry Port Beach - East", "mainImg" : "geograph-1012605-by-rose-and-trev-clough.jpg", "address" : "Burry Port, Carmarthenshire", "type" : "", "lon" : -4.247923, "lat" : 51.678581, "loc" : [ -4.247923, 51.678581 ] },
		{ "id" : 1158, "ref" : 183, "name" : "Cadgwith Cove", "mainImg" : "geograph-1341684-by-andy-herrin.jpg", "address" : "Lizard, Cornwall", "type" : "shingle", "lon" : -5.178277, "lat" : 49.98645, "loc" : [ -5.178277, 49.98645 ] },
		{ "id" : 1159, "ref" : 184, "name" : "Caerfai Bay", "mainImg" : "geograph-1180964-by-deborah-tilley.jpg", "address" : "St Davids, Pembrokeshire", "type" : "sand", "lon" : -5.252892, "lat" : 51.871815, "loc" : [ -5.252892, 51.871815 ] },
		{ "id" : 1160, "ref" : 185, "name" : "Caister Point", "mainImg" : "geograph-108424-by-martyn-davies.jpg", "address" : "Great Yarmouth, Norfolk", "type" : "sand", "lon" : 1.740481, "lat" : 52.646267, "loc" : [ 1.740481, 52.646267 ] },
		{ "id" : 1161, "ref" : 186, "name" : "Calshot", "mainImg" : "geograph-020991-by-chris-osowski.jpg", "address" : "Lymington, Hampshire", "type" : "shingle", "lon" : -1.317263, "lat" : 50.807789, "loc" : [ -1.317263, 50.807789 ] },
		{ "id" : 1162, "ref" : 187, "name" : "Camber", "mainImg" : "geograph-1389067-by-rrrr-nnnn.jpg", "address" : "Rye, East Sussex", "type" : "sand", "lon" : 0.7969999999999999, "lat" : 50.933, "loc" : [ 0.7969999999999999, 50.933 ] },
		{ "id" : 1163, "ref" : 188, "name" : "Cambois - North", "mainImg" : "wansbeck.gif", "address" : "Ashington, Northumberland", "type" : "sand", "lon" : -1.521285, "lat" : 55.15654, "loc" : [ -1.521285, 55.15654 ] },
		{ "id" : 1164, "ref" : 189, "name" : "Cambois - South", "mainImg" : "wansbeck.gif", "address" : "Ashington, Northumberland", "type" : "sand", "lon" : -1.513591, "lat" : 55.144825, "loc" : [ -1.513591, 55.144825 ] },
		{ "id" : 1165, "ref" : 190, "name" : "Canvey Island", "mainImg" : "", "address" : "Southend on Sea, Essex", "type" : "sand", "lon" : 0.6010489999999999, "lat" : 51.51136, "loc" : [ 0.6010489999999999, 51.51136 ] },
		{ "id" : 1166, "ref" : 191, "name" : "Canvey Island - Thorney Bay", "mainImg" : "geograph-1195825-by-william.jpg", "address" : "Southend on Sea, Essex", "type" : "sand", "lon" : 0.587441, "lat" : 51.512745, "loc" : [ 0.587441, 51.512745 ] },
		{ "id" : 1167, "ref" : 194, "name" : "Carbis Bay Beach", "mainImg" : "geograph-895921-by-pierre-terre.jpg", "address" : "Carbis Bay, Cornwall", "type" : "sand", "lon" : -5.464218, "lat" : 50.197796, "loc" : [ -5.464218, 50.197796 ] },
		{ "id" : 1168, "ref" : 195, "name" : "Carnlough", "mainImg" : "", "address" : "Carnlough, Antrim", "type" : "harbour, sand", "lon" : -5.987892, "lat" : 54.99273, "loc" : [ -5.987892, 54.99273 ] },
		{ "id" : 1169, "ref" : 196, "name" : "Carnoustie", "mainImg" : "geograph-1424069-by-tom-pennington.jpg", "address" : "Carnoustie, Angus", "type" : "sand, rock", "lon" : -2.704227, "lat" : 56.498173, "loc" : [ -2.704227, 56.498173 ] },
		{ "id" : 1170, "ref" : 197, "name" : "Carradale", "mainImg" : "geograph-024015-by-gary-sutherland.jpg", "address" : "Carradale, Argyll & Bute", "type" : "sand", "lon" : -5.467987, "lat" : 55.591011, "loc" : [ -5.467987, 55.591011 ] },
		{ "id" : 1171, "ref" : 198, "name" : "Carreg Wen", "mainImg" : "geograph-639938-by-alan-fryer.jpg", "address" : "Porthmadog, Gwynedd", "type" : "sand", "lon" : -4.140629, "lat" : 52.911343, "loc" : [ -4.140629, 52.911343 ] },
		{ "id" : 1172, "ref" : 199, "name" : "Carrick Bay", "mainImg" : "geograph-978385-by-sarah-charlesworth.jpg", "address" : "Dumfries, Dumfries & Galloway", "type" : "sand", "lon" : -4.218536, "lat" : 54.824272, "loc" : [ -4.218536, 54.824272 ] },
		{ "id" : 1173, "ref" : 202, "name" : "Castlerock", "mainImg" : "geograph-909563-by-kay-atherton.jpg", "address" : "Castlerock, Londonderry", "type" : "sand", "lon" : -6.792641, "lat" : 55.168058, "loc" : [ -6.792641, 55.168058 ] },
		{ "id" : 1174, "ref" : 203, "name" : "Castletown", "mainImg" : "geograph-153536-by-kevin-rothwell.jpg", "address" : "Castletown, Isle of Man", "type" : "sand", "lon" : -4.652023, "lat" : 54.072578, "loc" : [ -4.652023, 54.072578 ] },
		{ "id" : 1175, "ref" : 204, "name" : "Caswell Bay", "mainImg" : "geograph-409440-by-pam-brophy.jpg", "address" : "Mumbles, Swansea", "type" : "sand", "lon" : -4.033178, "lat" : 51.567375, "loc" : [ -4.033178, 51.567375 ] },
		{ "id" : 1176, "ref" : 205, "name" : "Cawsand Bay", "mainImg" : "geograph-845377-by-mick-lobb.jpg", "address" : "Plymouth, Cornwall", "type" : "sand", "lon" : -4.20024, "lat" : 50.33028, "loc" : [ -4.20024, 50.33028 ] },
		{ "id" : 1177, "ref" : 206, "name" : "Cayton Bay", "mainImg" : "cayton.gif", "address" : "Scarborough, North Yorkshire", "type" : "sand, rock", "lon" : -0.360835, "lat" : 54.244869, "loc" : [ -0.360835, 54.244869 ] },
		{ "id" : 1178, "ref" : 208, "name" : "Cemaes", "mainImg" : "geograph-1185135-by-eric-jones.jpg", "address" : "Menai Bridge, Isle of anglesey", "type" : "sand, rock", "lon" : -4.447988, "lat" : 53.414009, "loc" : [ -4.447988, 53.414009 ] },
		{ "id" : 1179, "ref" : 209, "name" : "Cemaes - Traeth Bach", "mainImg" : "geograph-1716932-by-david-dixon.jpg", "address" : "Menai Bridge, Isle of Anglesey", "type" : "sand, rock", "lon" : -4.451284, "lat" : 53.413757, "loc" : [ -4.451284, 53.413757 ] },
		{ "id" : 1180, "ref" : 210, "name" : "Cemlyn", "mainImg" : "geograph-042253-by-dave-smethurst.jpg", "address" : "Menai Bridge, Isle of Anglesey", "type" : "shingle", "lon" : -4.504271, "lat" : 53.408703, "loc" : [ -4.504271, 53.408703 ] },
		{ "id" : 1181, "ref" : 211, "name" : "Challaborough", "mainImg" : "geograph-1474832-by-derek-harper.jpg", "address" : "Bigbury, Devon", "type" : "sand, rock", "lon" : -3.896385, "lat" : 50.287064, "loc" : [ -3.896385, 50.287064 ] },
		{ "id" : 1182, "ref" : 212, "name" : "Chapel Porth", "mainImg" : "geograph-1487681-by-rod-allday.jpg", "address" : "St Agnes, Cornwall", "type" : "sand", "lon" : -5.234243, "lat" : 50.299801, "loc" : [ -5.234243, 50.299801 ] },
		{ "id" : 1183, "ref" : 213, "name" : "Chapel St Leonards", "mainImg" : "stleonard.gif", "address" : "Skegness, Lincolnshire", "type" : "sand, shingle", "lon" : 0.343013, "lat" : 53.223507, "loc" : [ 0.343013, 53.223507 ] },
		{ "id" : 1184, "ref" : 214, "name" : "Charlestown", "mainImg" : "geograph-401980-by-gary-radford.jpg", "address" : "St Austell, Cornwall", "type" : "pebbles", "lon" : -4.75148, "lat" : 50.331131, "loc" : [ -4.75148, 50.331131 ] },
		{ "id" : 1185, "ref" : 215, "name" : "Charmouth - East", "mainImg" : "geograph-1184579-by-nigel-chadwick.jpg", "address" : "Lyme Regis, Dorset", "type" : "sand, shingle", "lon" : -2.897024, "lat" : 50.731697, "loc" : [ -2.897024, 50.731697 ] },
		{ "id" : 1186, "ref" : 216, "name" : "Charmouth - West", "mainImg" : "geograph-047463-by-steve-chapple.jpg", "address" : "Lyme Regis, Dorset", "type" : "sand, shingle", "lon" : -2.902714, "lat" : 50.732548, "loc" : [ -2.902714, 50.732548 ] },
		{ "id" : 1187, "ref" : 217, "name" : "Chesil Cove", "mainImg" : "geograph-942629-by-a-m-jervis.jpg", "address" : "Weymouth, Dorset", "type" : "pebbles", "lon" : -2.448997, "lat" : 50.559799, "loc" : [ -2.448997, 50.559799 ] },
		{ "id" : 1188, "ref" : 218, "name" : "Christchurch - Avon Beach", "mainImg" : "geograph-497917-by-mike-smith.jpg", "address" : "Christchurch, Dorset", "type" : "bay, sand, shingle", "lon" : -1.732178, "lat" : 50.729435, "loc" : [ -1.732178, 50.729435 ] },
		{ "id" : 1189, "ref" : 219, "name" : "Christchurch - Friars Cliff", "mainImg" : "geograph-1094462-by-chris-downer.jpg", "address" : "Christchurch, Dorset", "type" : "bay, sand, shingle", "lon" : -1.727924, "lat" : 50.731411, "loc" : [ -1.727924, 50.731411 ] },
		{ "id" : 1190, "ref" : 489, "name" : "Christchurch - Highcliffe", "mainImg" : "geograph-260945-by-peter-jordan.jpg", "address" : "Christchurch, Dorset", "type" : "bay, sand, shingle", "lon" : -1.693872, "lat" : 50.736542, "loc" : [ -1.693872, 50.736542 ] },
		{ "id" : 1191, "ref" : 220, "name" : "Christchurch - Highcliffe Castle", "mainImg" : "geograph-260945-by-peter-jordan.jpg", "address" : "Christchurch, Dorset", "type" : "bay, sand, shingle", "lon" : -1.716561, "lat" : 50.734798, "loc" : [ -1.716561, 50.734798 ] },
		{ "id" : 1192, "ref" : 221, "name" : "Christchurch - Mudeford Quay", "mainImg" : "geograph-184441-by-clive-perrin.jpg", "address" : "Christchurch, Dorset", "type" : "harbour, sand", "lon" : -1.740716, "lat" : 50.722263, "loc" : [ -1.740716, 50.722263 ] },
		{ "id" : 1193, "ref" : 222, "name" : "Christchurch - Mudeford Sandbank", "mainImg" : "geograph-1048277-by-nigel-mykura.jpg", "address" : "Bournemouth, Dorset", "type" : "bay, sand", "lon" : -1.740742, "lat" : 50.71867, "loc" : [ -1.740742, 50.71867 ] },
		{ "id" : 1194, "ref" : 223, "name" : "Christchurch - Steamer Point", "mainImg" : "geograph-916712-by-jim-champion.jpg", "address" : "Christchurch, Dorset", "type" : "sand, shingle", "lon" : -1.720815, "lat" : 50.73391, "loc" : [ -1.720815, 50.73391 ] },
		{ "id" : 1195, "ref" : 224, "name" : "Christchurch Bay (Barton-On-Sea)", "mainImg" : "geograph-024375-by-jim-champion.jpg", "address" : "Bournemouth, Hampshire", "type" : "shingle", "lon" : -1.661302, "lat" : 50.733757, "loc" : [ -1.661302, 50.733757 ] },
		{ "id" : 1196, "ref" : 225, "name" : "Church Bay", "mainImg" : "", "address" : "Rhydwyn, Isle of Anglesey", "type" : "sand, pebbles", "lon" : -4.556201, "lat" : 53.373798, "loc" : [ -4.556201, 53.373798 ] },
		{ "id" : 1197, "ref" : 226, "name" : "Church Ope Cove", "mainImg" : "geograph-1470509-by-ivan-hall.jpg", "address" : "Weymouth, Dorset", "type" : "pebbles", "lon" : -2.42675, "lat" : 50.535599, "loc" : [ -2.42675, 50.535599 ] },
		{ "id" : 1198, "ref" : 227, "name" : "Churston Cove", "mainImg" : "geograph-1084756-by-paul-hutchinson.jpg", "address" : "Brixham, Torbay", "type" : "shingle, rock", "lon" : -3.521247, "lat" : 50.401413, "loc" : [ -3.521247, 50.401413 ] },
		{ "id" : 1199, "ref" : 228, "name" : "Cilborth", "mainImg" : "geograph-037377-by-richard-thomas.jpg", "address" : "Cardigan, Ceredigion", "type" : "sand, rock", "lon" : -4.469616, "lat" : 52.161587, "loc" : [ -4.469616, 52.161587 ] },
		{ "id" : 1200, "ref" : 230, "name" : "Clacton", "mainImg" : "geograph-1468456-by-martin-addison.jpg", "address" : "Clacton on Sea, Essex", "type" : "sand, shingle", "lon" : 1.173053, "lat" : 51.792595, "loc" : [ 1.173053, 51.792595 ] },
		{ "id" : 1201, "ref" : 231, "name" : "Clacton - Groyne 41", "mainImg" : "geograph-1462638-by-christine-matthews.jpg", "address" : "Clacton on Sea, Essex", "type" : "sand, shingle", "lon" : 1.155226, "lat" : 51.784527, "loc" : [ 1.155226, 51.784527 ] },
		{ "id" : 1202, "ref" : 232, "name" : "Clacton -Martello Tower", "mainImg" : "geograph-886900-by-roger-geach.jpg", "address" : "Clacton on Sea, Essex", "type" : "sand", "lon" : 1.141824, "lat" : 51.779491, "loc" : [ 1.141824, 51.779491 ] },
		{ "id" : 1203, "ref" : 233, "name" : "Clarach - North", "mainImg" : "geograph-1166612-by-olu.jpg", "address" : "Aberystwyth, Ceredigion", "type" : "sand, shingle", "lon" : -4.081726, "lat" : 52.435261, "loc" : [ -4.081726, 52.435261 ] },
		{ "id" : 1204, "ref" : 234, "name" : "Clarach - South", "mainImg" : "geograph-019678-by-nigel-callaghan.jpg", "address" : "Aberystwyth, Ceredigion", "type" : "sand, shingle", "lon" : -4.080127, "lat" : 52.432594, "loc" : [ -4.080127, 52.432594 ] },
		{ "id" : 1205, "ref" : 236, "name" : "Cleethorpes", "mainImg" : "cleethorpes.gif", "address" : "Grimsby, Lincolnshire", "type" : "sand", "lon" : -0.021361, "lat" : 53.557396, "loc" : [ -0.021361, 53.557396 ] },
		{ "id" : 1206, "ref" : 237, "name" : "Clevedon Bay", "mainImg" : "geograph-822570-by-dennis-turner.jpg", "address" : "Bristol, North Somerset", "type" : "sand, pebbles", "lon" : -2.857553, "lat" : 51.437965, "loc" : [ -2.857553, 51.437965 ] },
		{ "id" : 1207, "ref" : 238, "name" : "Clevedon Beach", "mainImg" : "geograph-107592-by-clive-perrin.jpg", "address" : "Bristol, North Somerset", "type" : "sand, pebbles", "lon" : -2.866162, "lat" : 51.436111, "loc" : [ -2.866162, 51.436111 ] },
		{ "id" : 1208, "ref" : 239, "name" : "Cleveleys", "mainImg" : "geograph-1593207-by-steve-daniels.jpg", "address" : "Blackpool, Lancashire", "type" : "sand, shingle, pebbles", "lon" : -3.046633, "lat" : 53.877529, "loc" : [ -3.046633, 53.877529 ] },
		{ "id" : 1209, "ref" : 240, "name" : "Cley Beach", "mainImg" : "geograph-1413679-by-jay-haywood.jpg", "address" : "Norwich, Norfolk", "type" : "shingle", "lon" : 1.052863, "lat" : 52.9646, "loc" : [ 1.052863, 52.9646 ] },
		{ "id" : 1210, "ref" : 242, "name" : "Clonque", "mainImg" : "dscf0034.jpg", "address" : "St Annes, Alderney", "type" : "sand, shingle, rock", "lon" : -2.226105, "lat" : 49.713706, "loc" : [ -2.226105, 49.713706 ] },
		{ "id" : 1211, "ref" : 243, "name" : "Clovelly", "mainImg" : "geograph-207092-by-neil-kennedy.jpg", "address" : "Bideford, Devon", "type" : "pebbles", "lon" : -4.397333, "lat" : 50.998333, "loc" : [ -4.397333, 50.998333 ] },
		{ "id" : 1212, "ref" : 244, "name" : "Cobo Beach", "mainImg" : "cobo.gif", "address" : "Castel, Guernsey", "type" : "sand, rock", "lon" : -2.60582, "lat" : 49.479606, "loc" : [ -2.60582, 49.479606 ] },
		{ "id" : 1213, "ref" : 245, "name" : "Cocklawburn Beach", "mainImg" : "cocklawburn.gif", "address" : "Berwick upon Tweed, Northumberland", "type" : "bay, sand", "lon" : -1.952221, "lat" : 55.729908, "loc" : [ -1.952221, 55.729908 ] },
		{ "id" : 1214, "ref" : 246, "name" : "Cold Knap. Barry", "mainImg" : "", "address" : "Barry, Vale of Glamorgan", "type" : "sand", "lon" : -3.298625, "lat" : 51.388947, "loc" : [ -3.298625, 51.388947 ] },
		{ "id" : 1215, "ref" : 247, "name" : "Coldingham Bay", "mainImg" : "4200.coldingham-by-neil mackay.jpg", "address" : "Eyemouth, The Borders", "type" : "harbour, sand, rock", "lon" : -2.131758, "lat" : 55.892052, "loc" : [ -2.131758, 55.892052 ] },
		{ "id" : 1216, "ref" : 248, "name" : "Collieston", "mainImg" : "geograph-117085-by-colin-smith.jpg", "address" : "Peterhead, Aberdeenshire", "type" : "harbour, sand", "lon" : -1.93352, "lat" : 57.347198, "loc" : [ -1.93352, 57.347198 ] },
		{ "id" : 1217, "ref" : 249, "name" : "Colwell Bay", "mainImg" : "geograph-1220005-by-chris-downer.jpg", "address" : "Totland, Isle of Wight", "type" : "sand, shingle", "lon" : -1.535617, "lat" : 50.689251, "loc" : [ -1.535617, 50.689251 ] },
		{ "id" : 1218, "ref" : 250, "name" : "Colwyn Bay", "mainImg" : "geograph-1055314-by-graham-taylor.jpg", "address" : "Colwyn Bay, Conwy", "type" : "sand, shingle", "lon" : -3.713096, "lat" : 53.296902, "loc" : [ -3.713096, 53.296902 ] },
		{ "id" : 1219, "ref" : 251, "name" : "Colwyn Bay - Cayley Promenade", "mainImg" : "geograph-245690-by-les-carruthers.jpg", "address" : "Conwy, Conwy", "type" : "sand", "lon" : -3.726904, "lat" : 53.300659, "loc" : [ -3.726904, 53.300659 ] },
		{ "id" : 1220, "ref" : 252, "name" : "Colwyn Bay - Marine Road", "mainImg" : "geograph-527462-by-eirian-evans.jpg", "address" : "Conwy, Conwy", "type" : "rock", "lon" : -3.721711, "lat" : 53.298573, "loc" : [ -3.721711, 53.298573 ] },
		{ "id" : 1221, "ref" : 253, "name" : "Colwyn Bay - Opposite Rhos Abbey Hotel", "mainImg" : "geograph-1055327-by-graham-taylor.jpg", "address" : "Conwy, Conwy", "type" : "sand, rock", "lon" : -3.733642, "lat" : 53.307659, "loc" : [ -3.733642, 53.307659 ] },
		{ "id" : 1222, "ref" : 254, "name" : "Combe Martin", "mainImg" : "geograph-1330025-by-pauline-eccles.jpg", "address" : "Ilfracombe, Devon", "type" : "sand, rock", "lon" : -4.037013, "lat" : 51.206833, "loc" : [ -4.037013, 51.206833 ] },
		{ "id" : 1223, "ref" : 255, "name" : "Compton Bay", "mainImg" : "geograph-757990-by-john-firth.jpg", "address" : "Totland, Isle of Wight", "type" : "sand", "lon" : -1.466625, "lat" : 50.654778, "loc" : [ -1.466625, 50.654778 ] },
		{ "id" : 1224, "ref" : 256, "name" : "Constantine Bay", "mainImg" : "geograph-482383-by-roy-parkhouse.jpg", "address" : "Padstow, Cornwall", "type" : "sand", "lon" : -5.022935, "lat" : 50.533108, "loc" : [ -5.022935, 50.533108 ] },
		{ "id" : 1225, "ref" : 257, "name" : "Conwy Morfa", "mainImg" : "geograph-1663897-by-jonathan-wilkins.jpg", "address" : "Conwy, Conwy", "type" : "sand", "lon" : -3.864444, "lat" : 53.291664, "loc" : [ -3.864444, 53.291664 ] },
		{ "id" : 1226, "ref" : 258, "name" : "Cooden Beach", "mainImg" : "geograph-1087702-by-row17.jpg", "address" : "Bexhill, East Sussex", "type" : "sand", "lon" : 0.435634, "lat" : 50.831131, "loc" : [ 0.435634, 50.831131 ] },
		{ "id" : 1227, "ref" : 259, "name" : "Coppet Hall", "mainImg" : "geograph-569956-by-pauline-eccles.jpg", "address" : "Saundersfoot, Pembrokeshire", "type" : "sand", "lon" : -4.688461, "lat" : 51.715179, "loc" : [ -4.688461, 51.715179 ] },
		{ "id" : 1228, "ref" : 260, "name" : "Corblets", "mainImg" : "dscf0033.jpg", "address" : "St Annes, Alderney", "type" : "sand, rock", "lon" : -2.224045, "lat" : 49.702361, "loc" : [ -2.224045, 49.702361 ] },
		{ "id" : 1229, "ref" : 299, "name" : "Coryton Cove", "mainImg" : "4227.dawlish-coryton cove-by-.jpg", "address" : "Dawlish, Devon", "type" : "cove, sand", "lon" : -3.467348, "lat" : 50.574444, "loc" : [ -3.467348, 50.574444 ] },
		{ "id" : 1230, "ref" : 263, "name" : "Coverack", "mainImg" : "geograph-1557111-by-smj.jpg", "address" : "Helston, Cornwall", "type" : "shingle", "lon" : -5.095559, "lat" : 50.023781, "loc" : [ -5.095559, 50.023781 ] },
		{ "id" : 1231, "ref" : 264, "name" : "Cowes", "mainImg" : "geograph-817507-by-euchiasmus.jpg", "address" : "Cowes, Isle of Wight", "type" : "shingle", "lon" : -1.307922, "lat" : 50.767269, "loc" : [ -1.307922, 50.767269 ] },
		{ "id" : 1232, "ref" : 265, "name" : "Cowes-East", "mainImg" : "geograph-065643-by-mark-pilbeam.jpg", "address" : "Cowes, Isle of Wight", "type" : "shingle", "lon" : -1.282439, "lat" : 50.764416, "loc" : [ -1.282439, 50.764416 ] },
		{ "id" : 1233, "ref" : 266, "name" : "Crackington Haven", "mainImg" : "geograph-1288334-by-john-baker.jpg", "address" : "Boscastle, Cornwall", "type" : "shingle", "lon" : -4.632237, "lat" : 50.740772, "loc" : [ -4.632237, 50.740772 ] },
		{ "id" : 1234, "ref" : 267, "name" : "Craig Tara (Wonderwest World)", "mainImg" : "geograph-380042-by-wfmillar.jpg", "address" : "Ayr, South Ayrshire", "type" : "sand, rock", "lon" : -4.684112, "lat" : 55.434486, "loc" : [ -4.684112, 55.434486 ] },
		{ "id" : 1235, "ref" : 268, "name" : "Cramond", "mainImg" : "geograph-1641129-by-m-j-richardson.jpg", "address" : "Edinburgh, City of Edinburgh", "type" : "sand", "lon" : -3.282257, "lat" : 55.981152, "loc" : [ -3.282257, 55.981152 ] },
		{ "id" : 1236, "ref" : 269, "name" : "Cranfield - Nicholsons Strand", "mainImg" : "geograph-972402-by-albert-bridge.jpg", "address" : "Kilkeel, Down", "type" : "sand", "lon" : -6.076126, "lat" : 54.046785, "loc" : [ -6.076126, 54.046785 ] },
		{ "id" : 1237, "ref" : 270, "name" : "Cranfield Bay", "mainImg" : "geograph-972346-by-albert-bridge.jpg", "address" : "Kilkeel, Down", "type" : "sand, shingle", "lon" : -6.093292, "lat" : 54.058071, "loc" : [ -6.093292, 54.058071 ] },
		{ "id" : 1238, "ref" : 271, "name" : "Crantock", "mainImg" : "geograph-308918-by-trish-steel.jpg", "address" : "Newquay, Cornwall", "type" : "sand", "lon" : -5.118919, "lat" : 50.404621, "loc" : [ -5.118919, 50.404621 ] },
		{ "id" : 1239, "ref" : 272, "name" : "Craster", "mainImg" : "craster.gif", "address" : "Alnwick, Northumberland", "type" : "harbour, sand, shingle", "lon" : -1.588658, "lat" : 55.473118, "loc" : [ -1.588658, 55.473118 ] },
		{ "id" : 1240, "ref" : 273, "name" : "Crawfordsburn. Bangor", "mainImg" : "geograph-785026-by-albert-bridge.jpg", "address" : "Bangor, Down", "type" : "sand", "lon" : -5.718384, "lat" : 54.666578, "loc" : [ -5.718384, 54.666578 ] },
		{ "id" : 1241, "ref" : 274, "name" : "Cresswell", "mainImg" : "druridge.gif", "address" : "Ashington, Northumberland", "type" : "sand", "lon" : -1.543894, "lat" : 55.239304, "loc" : [ -1.543894, 55.239304 ] },
		{ "id" : 1242, "ref" : 275, "name" : "Criccieth", "mainImg" : "geograph-136171-by-ken-crosby.jpg", "address" : "Criccieth, Gwynedd", "type" : "sand, shingle, rock", "lon" : -4.226413, "lat" : 52.918942, "loc" : [ -4.226413, 52.918942 ] },
		{ "id" : 1243, "ref" : 276, "name" : "Criccieth - West End", "mainImg" : "geograph-463013-by-trevor-rickard.jpg", "address" : "Criccieth, Gwynedd", "type" : "sand", "lon" : -4.228664, "lat" : 52.917885, "loc" : [ -4.228664, 52.917885 ] },
		{ "id" : 1244, "ref" : 277, "name" : "Crimdon - Park", "mainImg" : "blackhall.gif", "address" : "Hartlepool, Durham", "type" : "sand", "lon" : -1.247136, "lat" : 54.727882, "loc" : [ -1.247136, 54.727882 ] },
		{ "id" : 1245, "ref" : 278, "name" : "Crimdon - South", "mainImg" : "blackhall.gif", "address" : "Hartlepool, Durham", "type" : "sand", "lon" : -1.231458, "lat" : 54.719158, "loc" : [ -1.231458, 54.719158 ] },
		{ "id" : 1246, "ref" : 279, "name" : "Crinnis Beach - Golf Links", "mainImg" : "geograph-495315-by-mike-hancock.jpg", "address" : "East Looe, Cornwall", "type" : "sand", "lon" : -4.722312, "lat" : 50.337215, "loc" : [ -4.722312, 50.337215 ] },
		{ "id" : 1247, "ref" : 280, "name" : "Crinnis Beach - Leisure Centre", "mainImg" : "geograph-295877-by-tony-atkin.jpg", "address" : "East Looe, Cornwall", "type" : "sand", "lon" : -4.732082, "lat" : 50.33609, "loc" : [ -4.732082, 50.33609 ] },
		{ "id" : 1248, "ref" : 281, "name" : "Cromarty", "mainImg" : "geograph-353641-by-chris-wilson.jpg", "address" : "Cromarty, Highland", "type" : "sand", "lon" : -4.045943, "lat" : 57.676544, "loc" : [ -4.045943, 57.676544 ] },
		{ "id" : 1249, "ref" : 282, "name" : "Cromer", "mainImg" : "geograph-507384-by-raymond-e-hawkins.jpg", "address" : "Cromer, Norfolk", "type" : "sand, shingle", "lon" : 1.302253, "lat" : 52.933643, "loc" : [ 1.302253, 52.933643 ] },
		{ "id" : 1250, "ref" : 283, "name" : "Croy", "mainImg" : "geograph-305877-by-mary-and-angus-hogg.jpg", "address" : "Maybole, South Ayrshire", "type" : "sand", "lon" : -4.77165, "lat" : 55.374996, "loc" : [ -4.77165, 55.374996 ] },
		{ "id" : 1251, "ref" : 284, "name" : "Croyde Bay", "mainImg" : "geograph-1354484-by-philip-halling.jpg", "address" : "Braunton, Devon", "type" : "sand", "lon" : -4.237374, "lat" : 51.131027, "loc" : [ -4.237374, 51.131027 ] },
		{ "id" : 1252, "ref" : 285, "name" : "Cruden Bay", "mainImg" : "geograph-383966-by-martyn-gorman.jpg", "address" : "Peterhead, Aberdeenshire", "type" : "sand", "lon" : -1.850341, "lat" : 57.411633, "loc" : [ -1.850341, 57.411633 ] },
		{ "id" : 1253, "ref" : 286, "name" : "Cuckmere Haven Beach", "mainImg" : "geograph-032296-by-philip-talmage.jpg", "address" : "Seaford, East Sussex", "type" : "pebbles", "lon" : 0.155234, "lat" : 50.756596, "loc" : [ 0.155234, 50.756596 ] },
		{ "id" : 1254, "ref" : 288, "name" : "Cullen", "mainImg" : "geograph-684731-by-john-allan.jpg", "address" : "Cullen, Moray", "type" : "sand", "lon" : -2.833496, "lat" : 57.694736, "loc" : [ -2.833496, 57.694736 ] },
		{ "id" : 1255, "ref" : 289, "name" : "Culzean", "mainImg" : "geograph-1285392-by-helen-wilkinson.jpg", "address" : "Maybole, South Ayrshire", "type" : "sand", "lon" : -4.80771, "lat" : 55.348999, "loc" : [ -4.80771, 55.348999 ] },
		{ "id" : 1256, "ref" : 291, "name" : "Cushendall", "mainImg" : "geograph-863500-by-garry-smales.jpg", "address" : "Cushendall, Antrim", "type" : "sand", "lon" : -6.052437, "lat" : 55.081656, "loc" : [ -6.052437, 55.081656 ] },
		{ "id" : 1257, "ref" : 292, "name" : "Cushendun", "mainImg" : "geograph-1381574-by-dr-neil-clifton.jpg", "address" : "Cushendun, Antrim", "type" : "sand", "lon" : -6.039734, "lat" : 55.127026, "loc" : [ -6.039734, 55.127026 ] },
		{ "id" : 1258, "ref" : 293, "name" : "Cwm yr Eglwys", "mainImg" : "geograph-537032-by-chris-gunns.jpg", "address" : "Cwm yr Eglwys, Pembrokeshire", "type" : "sand, shingle", "lon" : -6.547852, "lat" : 52.237668, "loc" : [ -6.547852, 52.237668 ] },
		{ "id" : 1259, "ref" : 294, "name" : "Cwmtydu", "mainImg" : "geograph-181013-by-cered.jpg", "address" : "New Quay, Ceredigion", "type" : "shingle", "lon" : -4.406187, "lat" : 52.192131, "loc" : [ -4.406187, 52.192131 ] },
		{ "id" : 1260, "ref" : 295, "name" : "Dale", "mainImg" : "geograph-1023740-by-robin-lucas.jpg", "address" : "Dale, Pembrokeshire", "type" : "sand, shingle", "lon" : -5.165748, "lat" : 51.706886, "loc" : [ -5.165748, 51.706886 ] },
		{ "id" : 1261, "ref" : 296, "name" : "Dalgety Bay (Yacht Club)", "mainImg" : "geograph-575128-by-simon-johnston.jpg", "address" : "Edinburgh, Fife", "type" : "sand, pebbles", "lon" : -3.343339, "lat" : 56.032623, "loc" : [ -3.343339, 56.032623 ] },
		{ "id" : 1262, "ref" : 297, "name" : "Dalton Burn", "mainImg" : "daltonburn.gif", "address" : "Seaham, Durham", "type" : "sand, shingle", "lon" : -1.328832, "lat" : 54.840172, "loc" : [ -1.328832, 54.840172 ] },
		{ "id" : 1263, "ref" : 298, "name" : "Dartmouth Castle and Sugary Cove", "mainImg" : "", "address" : "Dartmouth, Devon", "type" : "sand", "lon" : -3.565682, "lat" : 50.340557, "loc" : [ -3.565682, 50.340557 ] },
		{ "id" : 1264, "ref" : 300, "name" : "Dawlish - Town", "mainImg" : "geograph-1318882-by-rob-purvis.jpg", "address" : "Dawlish, Devon", "type" : "sand", "lon" : -3.461344, "lat" : 50.581177, "loc" : [ -3.461344, 50.581177 ] },
		{ "id" : 1265, "ref" : 301, "name" : "Dawlish - Warren", "mainImg" : "geograph-1345777-by-lewis-clarke.jpg", "address" : "Dawlish, Devon", "type" : "sand, shingle", "lon" : -3.437168, "lat" : 50.599014, "loc" : [ -3.437168, 50.599014 ] },
		{ "id" : 1266, "ref" : 302, "name" : "Daymer Bay", "mainImg" : "geograph-1172859-by-ian-cunliffe.jpg", "address" : "Padstow, Cornwall", "type" : "sand", "lon" : -4.925414, "lat" : 50.560787, "loc" : [ -4.925414, 50.560787 ] },
		{ "id" : 1267, "ref" : 303, "name" : "Deal Castle", "mainImg" : "geograph-015876-by-darren-smith.jpg", "address" : "Deal, Kent", "type" : "shingle", "lon" : 1.406065, "lat" : 51.223366, "loc" : [ 1.406065, 51.223366 ] },
		{ "id" : 1268, "ref" : 304, "name" : "Deganwy North", "mainImg" : "geograph-019159-by-chris-shaw.jpg", "address" : "Conwy, Conwy", "type" : "sand", "lon" : -3.838274, "lat" : 53.297554, "loc" : [ -3.838274, 53.297554 ] },
		{ "id" : 1269, "ref" : 305, "name" : "Denemouth South", "mainImg" : "elephantrock.gif", "address" : "Hartlepool, Durham", "type" : "sand, shingle", "lon" : -1.289763, "lat" : 54.759064, "loc" : [ -1.289763, 54.759064 ] },
		{ "id" : 1270, "ref" : 306, "name" : "Derbyhaven", "mainImg" : "geograph-1444817-by-richard-hoare.jpg", "address" : "Castletown, Isle of Man", "type" : "", "lon" : -4.628677, "lat" : 54.073565, "loc" : [ -4.628677, 54.073565 ] },
		{ "id" : 1271, "ref" : 308, "name" : "Dhoon", "mainImg" : "geograph-893636-by-chris-beaver.jpg", "address" : "Kirkcudbright, Dumfries & Galloway", "type" : "sand", "lon" : -4.090173, "lat" : 54.814144, "loc" : [ -4.090173, 54.814144 ] },
		{ "id" : 1272, "ref" : 309, "name" : "Dinas Dinlle", "mainImg" : "", "address" : "Caernarfon, Gwynedd", "type" : "sand, pebbles", "lon" : -4.337083, "lat" : 53.08416, "loc" : [ -4.337083, 53.08416 ] },
		{ "id" : 1273, "ref" : 312, "name" : "Doniford", "mainImg" : "geograph-1661490-by-nigel-chadwick.jpg", "address" : "Watchet, Somerset", "type" : "sand, mud", "lon" : -3.309741, "lat" : 51.199062, "loc" : [ -3.309741, 51.199062 ] },
		{ "id" : 1274, "ref" : 314, "name" : "Doonfoot", "mainImg" : "geograph-960545-by-hamish-kirkpatrick.jpg", "address" : "Ayr, South Ayrshire", "type" : "sand", "lon" : -4.668562, "lat" : 55.438419, "loc" : [ -4.668562, 55.438419 ] },
		{ "id" : 1275, "ref" : 316, "name" : "Dornoch (Caravan Park)", "mainImg" : "geograph-871984-by-oliver-dixon.jpg", "address" : "Dornoch, Highland", "type" : "sand", "lon" : -4.011, "lat" : 57.88, "loc" : [ -4.011, 57.88 ] },
		{ "id" : 1276, "ref" : 315, "name" : "Dornoch - burn mouth", "mainImg" : "geograph-871991-by-oliver-dixon.jpg", "address" : "Dornoch, Highland", "type" : "sand", "lon" : -4.031428, "lat" : 57.866371, "loc" : [ -4.031428, 57.866371 ] },
		{ "id" : 1277, "ref" : 317, "name" : "Douglas - Broadway", "mainImg" : "geograph-505968-by-barry-daniels.jpg", "address" : "Douglas, Isle of Man", "type" : "sand", "lon" : -4.47607, "lat" : 54.156778, "loc" : [ -4.47607, 54.156778 ] },
		{ "id" : 1278, "ref" : 318, "name" : "Douglas - Central", "mainImg" : "", "address" : "Douglas, Isle of Man", "type" : "sand", "lon" : -4.477787, "lat" : 54.153361, "loc" : [ -4.477787, 54.153361 ] },
		{ "id" : 1279, "ref" : 319, "name" : "Douglas - Summerhill", "mainImg" : "geograph-1820805-by-glyn-baker.jpg", "address" : "Douglas, Isle of Man", "type" : "sand", "lon" : -4.473624, "lat" : 54.150469, "loc" : [ -4.473624, 54.150469 ] },
		{ "id" : 1280, "ref" : 320, "name" : "Dover Harbour", "mainImg" : "geograph-545571-by-ian-macnab.jpg", "address" : "Dover, Kent", "type" : "harbour, shingle", "lon" : 1.317144, "lat" : 51.122456, "loc" : [ 1.317144, 51.122456 ] },
		{ "id" : 1281, "ref" : 321, "name" : "Dovercourt Bay", "mainImg" : "geograph-748851-by-bob-jones.jpg", "address" : "Harwich, Essex", "type" : "sand", "lon" : 1.275455, "lat" : 51.928226, "loc" : [ 1.275455, 51.928226 ] },
		{ "id" : 1282, "ref" : 322, "name" : "Downderry", "mainImg" : "geograph-201527-by-tony-atkin.jpg", "address" : "East Looe, Cornwall", "type" : "sand, shingle", "lon" : -4.370616, "lat" : 50.359322, "loc" : [ -4.370616, 50.359322 ] },
		{ "id" : 1283, "ref" : 323, "name" : "Druidston Haven", "mainImg" : "geograph-1538482-by-david-smith.jpg", "address" : "Broad Haven, Pembrokeshire", "type" : "sand, pebbles", "lon" : -5.104776, "lat" : 51.810158, "loc" : [ -5.104776, 51.810158 ] },
		{ "id" : 1284, "ref" : 324, "name" : "Drummore", "mainImg" : "geograph-1435934-by-dennis-turner.jpg", "address" : "Drummore, Dumfries & Galloway", "type" : "sand, pebbles", "lon" : -4.8941, "lat" : 54.692429, "loc" : [ -4.8941, 54.692429 ] },
		{ "id" : 1285, "ref" : 325, "name" : "Druridge Bay", "mainImg" : "druridgebay.gif", "address" : "Amble, Northumberland", "type" : "sand", "lon" : -1.560967, "lat" : 55.25914, "loc" : [ -1.560967, 55.25914 ] },
		{ "id" : 1286, "ref" : 326, "name" : "Druridge Bay North (adj visitors ctr)", "mainImg" : "druridgebay.gif", "address" : "Amble, Northumberland", "type" : "sand", "lon" : -1.567083, "lat" : 55.275337, "loc" : [ -1.567083, 55.275337 ] },
		{ "id" : 1287, "ref" : 327, "name" : "Druridge Bay South (nrth Creswell)", "mainImg" : "druridgebay.gif", "address" : "Amble, Northumberland", "type" : "sand", "lon" : -1.567083, "lat" : 55.275337, "loc" : [ -1.567083, 55.275337 ] },
		{ "id" : 1288, "ref" : 329, "name" : "Dunbar - Belhaven", "mainImg" : "geograph-1435954-by-dennis-turner.jpg", "address" : "Dunbar, East Lothian", "type" : "sand", "lon" : -2.553445, "lat" : 56.00383, "loc" : [ -2.553445, 56.00383 ] },
		{ "id" : 1289, "ref" : 330, "name" : "Dunbar - East", "mainImg" : "geograph-1448740-by-richard-webb.jpg", "address" : "Dunbar, East Lothian", "type" : "sand", "lon" : -2.508352, "lat" : 56.001328, "loc" : [ -2.508352, 56.001328 ] },
		{ "id" : 1290, "ref" : 332, "name" : "Dunglass", "mainImg" : "geograph-148585-by-richard-webb.jpg", "address" : "Dunbar, East Lothian", "type" : "shingle, rock", "lon" : -2.361882, "lat" : 55.944157, "loc" : [ -2.361882, 55.944157 ] },
		{ "id" : 1291, "ref" : 333, "name" : "Dunnet Bay - Castlehill", "mainImg" : "geograph-931368-by-sarah-charlesworth.jpg", "address" : "Thurso, Highland", "type" : "sand", "lon" : -3.371462, "lat" : 58.597511, "loc" : [ -3.371462, 58.597511 ] },
		{ "id" : 1292, "ref" : 334, "name" : "Dunnet Bay - Murkle Bay/Dunnet", "mainImg" : "geograph-931365-by-sarah-charlesworth.jpg", "address" : "Thurso, Highland", "type" : "sand", "lon" : -3.349871, "lat" : 58.61795, "loc" : [ -3.349871, 58.61795 ] },
		{ "id" : 1293, "ref" : 335, "name" : "Dunoon West Bay", "mainImg" : "geograph-725665-by-peter-fuller.jpg", "address" : "Dunoon, Argyll & Bute", "type" : "shingle", "lon" : -4.928285, "lat" : 55.911671, "loc" : [ -4.928285, 55.911671 ] },
		{ "id" : 1294, "ref" : 336, "name" : "Dunster North West", "mainImg" : "geograph-1699694-by-phil-champion.jpg", "address" : "Dunster, Somerset", "type" : "sand, shingle, mud", "lon" : -3.435722, "lat" : 51.199387, "loc" : [ -3.435722, 51.199387 ] },
		{ "id" : 1295, "ref" : 337, "name" : "Dunster South East", "mainImg" : "geograph-793970-by-bill-webb.jpg", "address" : "Dunster, Somerset", "type" : "sand, shingle, mud", "lon" : -3.435722, "lat" : 51.199387, "loc" : [ -3.435722, 51.199387 ] },
		{ "id" : 1296, "ref" : 338, "name" : "Dunure", "mainImg" : "geograph-435148-by-john-mcleish.jpg", "address" : "Ayr, South Ayrshire", "type" : "harbour", "lon" : -4.75821, "lat" : 55.408566, "loc" : [ -4.75821, 55.408566 ] },
		{ "id" : 1297, "ref" : 339, "name" : "Dunwich", "mainImg" : "geograph-235357-by-stephen-nunney.jpg", "address" : "Southwold, Suffolk", "type" : "shingle", "lon" : 1.620875, "lat" : 52.272171, "loc" : [ 1.620875, 52.272171 ] },
		{ "id" : 1298, "ref" : 340, "name" : "Duporth Beach", "mainImg" : "geograph-217634-by-pam-brophy.jpg", "address" : "St Austell, Cornwall", "type" : "sand", "lon" : -4.761092, "lat" : 50.327305, "loc" : [ -4.761092, 50.327305 ] },
		{ "id" : 1299, "ref" : 341, "name" : "Durdle Door - East", "mainImg" : "4190.not geograph-durdle door east or man o war-by- -.jpg", "address" : "West Lulworth, Dorset", "type" : "shingle", "lon" : -2.273429, "lat" : 50.621143, "loc" : [ -2.273429, 50.621143 ] },
		{ "id" : 1300, "ref" : 342, "name" : "Durdle Door - West", "mainImg" : "geograph-1119710-by-lewis-clarke.jpg", "address" : "West Lulworth, Dorset", "type" : "shingle", "lon" : -2.277105, "lat" : 50.62149, "loc" : [ -2.277105, 50.62149 ] },
		{ "id" : 1301, "ref" : 343, "name" : "Dyffryn (Llanendwyn)", "mainImg" : "geograph-671313-by-anonymous.jpg", "address" : "Cardigan, Gwynedd", "type" : "sand", "lon" : -4.124764, "lat" : 52.781422, "loc" : [ -4.124764, 52.781422 ] },
		{ "id" : 1302, "ref" : 344, "name" : "Dymchurch", "mainImg" : "geograph-449564-by-simon-carey.jpg", "address" : "New Romney, Kent", "type" : "sand, shingle", "lon" : 1.014027, "lat" : 51.03352, "loc" : [ 1.014027, 51.03352 ] },
		{ "id" : 1303, "ref" : 345, "name" : "Dymchurch - Hythe Road", "mainImg" : "geograph-1326084-by-oast-house-archive.jpg", "address" : "New Romney, Kent", "type" : "sand, shingle", "lon" : 1.036276, "lat" : 51.04644, "loc" : [ 1.036276, 51.04644 ] },
		{ "id" : 1304, "ref" : 346, "name" : "Dymchurch - Redoubt", "mainImg" : "geograph-934034-by-oxymoron.jpg", "address" : "New Romney, Kent", "type" : "sand, shingle", "lon" : 0.9961279999999999, "lat" : 51.021385, "loc" : [ 0.9961279999999999, 51.021385 ] },
		{ "id" : 1305, "ref" : 347, "name" : "Earls Dyke", "mainImg" : "earlsdyke.gif", "address" : "Bridlington, East Riding of Yorkshire", "type" : "sand", "lon" : -0.213285, "lat" : 54.036007, "loc" : [ -0.213285, 54.036007 ] },
		{ "id" : 1306, "ref" : 348, "name" : "Earlsferry", "mainImg" : "geograph-1006413-by-jim-bain.jpg", "address" : "St Monance, Fife", "type" : "sand", "lon" : -2.823423, "lat" : 56.188152, "loc" : [ -2.823423, 56.188152 ] },
		{ "id" : 1307, "ref" : 349, "name" : "Easington", "mainImg" : "chourdon.gif", "address" : "Peterlee, Durham", "type" : "sand, shingle", "lon" : -1.307907, "lat" : 54.788826, "loc" : [ -1.307907, 54.788826 ] },
		{ "id" : 1308, "ref" : 972, "name" : "East Beach, Selsey", "mainImg" : "geograph-765827-by-simon-carey.jpg", "address" : "Selsey, West Sussex", "type" : "shingle", "lon" : -0.771, "lat" : 50.733, "loc" : [ -0.771, 50.733 ] },
		{ "id" : 1309, "ref" : 350, "name" : "East Quantoxhead", "mainImg" : "geograph-069271-by-tim-cook.jpg", "address" : "Watchet, Somerset", "type" : "sand, rock, mud", "lon" : -3.237764, "lat" : 51.183662, "loc" : [ -3.237764, 51.183662 ] },
		{ "id" : 1310, "ref" : 351, "name" : "East Wittering", "mainImg" : "geograph-816872-by-keith-edkins.jpg", "address" : "Chichester, West Sussex", "type" : "sand, shingle", "lon" : -0.877, "lat" : 50.764, "loc" : [ -0.877, 50.764 ] },
		{ "id" : 1311, "ref" : 352, "name" : "Eastbourne", "mainImg" : "geograph-037175-by-john-winfield.jpg", "address" : "Eastbourne, East Sussex", "type" : "sand, shingle", "lon" : 0.288718, "lat" : 50.760349, "loc" : [ 0.288718, 50.760349 ] },
		{ "id" : 1312, "ref" : 353, "name" : "Eastbourne - East of Pier", "mainImg" : "geograph-1333596-by-gordon-griffiths.jpg", "address" : "Eastbourne, East Sussex", "type" : "sand, shingle", "lon" : 0.305008, "lat" : 50.774422, "loc" : [ 0.305008, 50.774422 ] },
		{ "id" : 1313, "ref" : 354, "name" : "Eastbourne - Western Parade", "mainImg" : "geograph-257301-by-nick-signal.jpg", "address" : "Eastbourne, East Sussex", "type" : "sand, shingle", "lon" : 0.275961, "lat" : 50.753925, "loc" : [ 0.275961, 50.753925 ] },
		{ "id" : 1314, "ref" : 355, "name" : "Easthaven", "mainImg" : "geograph-411998-by-trish-steel.jpg", "address" : "Carnoustie, Angus", "type" : "sand, rock", "lon" : -2.659891, "lat" : 56.517105, "loc" : [ -2.659891, 56.517105 ] },
		{ "id" : 1315, "ref" : 356, "name" : "Eastney", "mainImg" : "geograph-1407236-by-steve-daniels.jpg", "address" : "Portsmouth, Hampshire", "type" : "shingle", "lon" : -1.042381, "lat" : 50.784279, "loc" : [ -1.042381, 50.784279 ] },
		{ "id" : 1316, "ref" : 357, "name" : "Elbury Cove", "mainImg" : "geograph-358278-by-tom-jolliffe.jpg", "address" : "Torbay, Devon", "type" : "pebbles", "lon" : -3.543785, "lat" : 50.402016, "loc" : [ -3.543785, 50.402016 ] },
		{ "id" : 1317, "ref" : 358, "name" : "Elie (Woodhaven & Ruby Bay)", "mainImg" : "geograph-1367118-by-m-j-richardson.jpg", "address" : "St Monance, Fife", "type" : "sand, rock", "lon" : -2.829811, "lat" : 56.18541, "loc" : [ -2.829811, 56.18541 ] },
		{ "id" : 1318, "ref" : 360, "name" : "Embo Beach", "mainImg" : "geograph-045492-by-christine-matthews.jpg", "address" : "Dornoch, Highland", "type" : "sand, rock", "lon" : -3.993316, "lat" : 57.909214, "loc" : [ -3.993316, 57.909214 ] },
		{ "id" : 1319, "ref" : 362, "name" : "Ettrick Bay. Bute", "mainImg" : "geograph-294261-by-iain-mckenzie.jpg", "address" : "Rothesay, Argyll & Bute", "type" : "sand", "lon" : -5.1357, "lat" : 55.847675, "loc" : [ -5.1357, 55.847675 ] },
		{ "id" : 1320, "ref" : 363, "name" : "Exmouth", "mainImg" : "geograph-1674832-by-david-dixon.jpg", "address" : "Exmouth, Devon", "type" : "sand", "lon" : -3.39962, "lat" : 50.610268, "loc" : [ -3.39962, 50.610268 ] },
		{ "id" : 1321, "ref" : 364, "name" : "Eyemouth", "mainImg" : "geograph-948917-by-walter-baxter.jpg", "address" : "Eyemouth, The Borders", "type" : "harbour, sand", "lon" : -2.088552, "lat" : 55.873848, "loc" : [ -2.088552, 55.873848 ] },
		{ "id" : 1322, "ref" : 365, "name" : "Eypemouth", "mainImg" : "geograph-1638246-by-dinglefoot.jpg", "address" : "Bridport, Dorset", "type" : "shingle", "lon" : -2.781952, "lat" : 50.714535, "loc" : [ -2.781952, 50.714535 ] },
		{ "id" : 1323, "ref" : 366, "name" : "Fairbourne", "mainImg" : "geograph-217373-by-olu.jpg", "address" : "Fairbourne, Gwynedd", "type" : "sand, rock", "lon" : -4.058501, "lat" : 52.697083, "loc" : [ -4.058501, 52.697083 ] },
		{ "id" : 1324, "ref" : 367, "name" : "Fairlie", "mainImg" : "geograph-966158-by-johnny-durnan.jpg", "address" : "Largs, North Ayrshire", "type" : "sand, shingle, rock", "lon" : -4.856157, "lat" : 55.757839, "loc" : [ -4.856157, 55.757839 ] },
		{ "id" : 1325, "ref" : 368, "name" : "Fall Bay", "mainImg" : "geograph-185406-by-martin-bodman.jpg", "address" : "Swansea, Swansea", "type" : "sand, pebbles, rock", "lon" : -4.288288, "lat" : 51.560871, "loc" : [ -4.288288, 51.560871 ] },
		{ "id" : 1326, "ref" : 369, "name" : "Falmouth (Feock Loe Beach)", "mainImg" : "geograph-1280229-by-graham-loveland.jpg", "address" : "Falmouth, Cornwall", "type" : "shingle", "lon" : -5.043343, "lat" : 50.147514, "loc" : [ -5.043343, 50.147514 ] },
		{ "id" : 1327, "ref" : 371, "name" : "Featherbed Rocks", "mainImg" : "daltonburn.gif", "address" : "Seaham, Durham", "type" : "rock", "lon" : -1.328789, "lat" : 54.841969, "loc" : [ -1.328789, 54.841969 ] },
		{ "id" : 1328, "ref" : 372, "name" : "Felixstowe - North", "mainImg" : "geograph-1119619-by-oxymoron.jpg", "address" : "Felixstowe, Suffolk", "type" : "sand, shingle", "lon" : 1.355299, "lat" : 51.958893, "loc" : [ 1.355299, 51.958893 ] },
		{ "id" : 1329, "ref" : 373, "name" : "Felixstowe - South", "mainImg" : "geograph-1262341-by-tim-marchant.jpg", "address" : "Felixstowe, Suffolk", "type" : "sand, shingle", "lon" : 1.343276, "lat" : 51.953838, "loc" : [ 1.343276, 51.953838 ] },
		{ "id" : 1330, "ref" : 374, "name" : "Felpham", "mainImg" : "geograph-1010740-by-ian-paterson.jpg", "address" : "Bognor Regis, West Sussex", "type" : "sand", "lon" : -0.651044, "lat" : 50.785713, "loc" : [ -0.651044, 50.785713 ] },
		{ "id" : 1331, "ref" : 375, "name" : "Fenella Beach", "mainImg" : "geograph-481794-by-chris-gunns.jpg", "address" : "Peel, Isle of Man", "type" : "sand", "lon" : -4.709358, "lat" : 54.224446, "loc" : [ -4.709358, 54.224446 ] },
		{ "id" : 1332, "ref" : 377, "name" : "Fermain", "mainImg" : "fermain.gif", "address" : "St Peter Port, Guernsey", "type" : "pebbles", "lon" : -2.534065, "lat" : 49.439862, "loc" : [ -2.534065, 49.439862 ] },
		{ "id" : 1333, "ref" : 378, "name" : "Ferryside Beach", "mainImg" : "geograph-461245-by-trevor-rickard.jpg", "address" : "Laugharne, Carmarthenshire", "type" : "sand", "lon" : -4.456664, "lat" : 51.766132, "loc" : [ -4.456664, 51.766132 ] },
		{ "id" : 1334, "ref" : 379, "name" : "Filey", "mainImg" : "filey.gif", "address" : "Scarborough, North Yorkshire", "type" : "sand", "lon" : -0.282563, "lat" : 54.207821, "loc" : [ -0.282563, 54.207821 ] },
		{ "id" : 1335, "ref" : 380, "name" : "Findhorn", "mainImg" : "geograph-550321-by-bob-embleton.jpg", "address" : "Forres, Highland", "type" : "sand", "lon" : -3.594122, "lat" : 57.661484, "loc" : [ -3.594122, 57.661484 ] },
		{ "id" : 1336, "ref" : 381, "name" : "Findhorn Family Beach", "mainImg" : "geograph-550321-by-bob-embleton.jpg", "address" : "Forres, Highland", "type" : "sand", "lon" : -3.594122, "lat" : 57.661484, "loc" : [ -3.594122, 57.661484 ] },
		{ "id" : 1337, "ref" : 382, "name" : "Findochty", "mainImg" : "geograph-227550-by-anne-burgess.jpg", "address" : "Findochty, Moray", "type" : "harbour", "lon" : -2.906079, "lat" : 57.698826, "loc" : [ -2.906079, 57.698826 ] },
		{ "id" : 1338, "ref" : 384, "name" : "Firemore. Poolewe", "mainImg" : "geograph-678460-by-dr-richard-murray.jpg", "address" : "Poolewe, Highland", "type" : "sand, rock", "lon" : -5.675005, "lat" : 57.831669, "loc" : [ -5.675005, 57.831669 ] },
		{ "id" : 1339, "ref" : 385, "name" : "Fishermans Haven", "mainImg" : "fishermans.gif", "address" : "Berwick upon Tweed, Northumberland", "type" : "sand", "lon" : -2.001594, "lat" : 55.768562, "loc" : [ -2.001594, 55.768562 ] },
		{ "id" : 1340, "ref" : 386, "name" : "Fisherrow - East", "mainImg" : "geograph-663115-by-james-denham.jpg", "address" : "Musselburgh, East Lothian", "type" : "harbour, sand, shingle", "lon" : -3.061759, "lat" : 55.9482, "loc" : [ -3.061759, 55.9482 ] },
		{ "id" : 1341, "ref" : 387, "name" : "Fisherrow - West", "mainImg" : "geograph-220695-by-richard-webb.jpg", "address" : "Musselburgh, East Lothian", "type" : "harbour, sand, shingle", "lon" : -3.069713, "lat" : 55.946331, "loc" : [ -3.069713, 55.946331 ] },
		{ "id" : 1342, "ref" : 388, "name" : "Flamborough - Danes Dyke", "mainImg" : "flamborough.gif", "address" : "Bridlington, East Riding of Yorkshire", "type" : "sand, pebbles", "lon" : -0.140037, "lat" : 54.103218, "loc" : [ -0.140037, 54.103218 ] },
		{ "id" : 1343, "ref" : 389, "name" : "Flamborough - North Landing", "mainImg" : "flamboroughhead.gif", "address" : "Bridlington, East Riding of Yorkshire", "type" : "sand, pebbles", "lon" : -0.105125, "lat" : 54.130547, "loc" : [ -0.105125, 54.130547 ] },
		{ "id" : 1344, "ref" : 390, "name" : "Flamborough - South Landing", "mainImg" : "flamboroughsth.gif", "address" : "Bridlington, East Riding of Yorkshire", "type" : "shingle, pebbles", "lon" : -0.117062, "lat" : 54.103767, "loc" : [ -0.117062, 54.103767 ] },
		{ "id" : 1345, "ref" : 391, "name" : "Flamborough North West Beach", "mainImg" : "flamboroughhead.gif", "address" : "Bridlington, East Riding of Yorkshire", "type" : "sand, pebbles", "lon" : -0.083771, "lat" : 54.110728, "loc" : [ -0.083771, 54.110728 ] },
		{ "id" : 1346, "ref" : 392, "name" : "Fleetwood", "mainImg" : "geograph-499101-by-keith-burroughs.jpg", "address" : "Fleetwood, Lancashire", "type" : "sand", "lon" : -3.018463, "lat" : 53.926495, "loc" : [ -3.018463, 53.926495 ] },
		{ "id" : 1347, "ref" : 393, "name" : "Folkestone", "mainImg" : "geograph-1326610-by-oast-house-archive.jpg", "address" : "Folkestone, Kent", "type" : "sand, shingle", "lon" : 1.194256, "lat" : 51.081802, "loc" : [ 1.194256, 51.081802 ] },
		{ "id" : 1348, "ref" : 394, "name" : "Folkestone - The Warren", "mainImg" : "geograph-1287581-by-david-anstiss.jpg", "address" : "Folkestone, Kent", "type" : "sand, rock", "lon" : 1.210751, "lat" : 51.093048, "loc" : [ 1.210751, 51.093048 ] },
		{ "id" : 1349, "ref" : 395, "name" : "Fontygary Bay", "mainImg" : "", "address" : "Barry, Vale of Glamorgan", "type" : "pebbles", "lon" : -3.361685, "lat" : 51.382381, "loc" : [ -3.361685, 51.382381 ] },
		{ "id" : 1350, "ref" : 396, "name" : "Formby", "mainImg" : "geograph-1793015-by-gary-rogers.jpg", "address" : "Southport, Sefton", "type" : "sand", "lon" : -3.104907, "lat" : 53.547981, "loc" : [ -3.104907, 53.547981 ] },
		{ "id" : 1351, "ref" : 397, "name" : "Formby - Victoria Road", "mainImg" : "geograph-327762-by-tom-pennington.jpg", "address" : "Formby, Sefton", "type" : "sand", "lon" : -3.094784, "lat" : 53.565159, "loc" : [ -3.094784, 53.565159 ] },
		{ "id" : 1352, "ref" : 398, "name" : "Fortrose", "mainImg" : "geograph-1078023-by-andy-jamieson.jpg", "address" : "Fortrose, Highland", "type" : "sand, shingle", "lon" : -4.114484, "lat" : 57.578308, "loc" : [ -4.114484, 57.578308 ] },
		{ "id" : 1353, "ref" : 399, "name" : "Fraisthorpe", "mainImg" : "fraisthorpe.gif", "address" : "Bridlington, Yorkshire", "type" : "sand", "lon" : -0.211217, "lat" : 54.048557, "loc" : [ -0.211217, 54.048557 ] },
		{ "id" : 1354, "ref" : 400, "name" : "Fraserburgh", "mainImg" : "geograph-235028-by-richard-slessor.jpg", "address" : "Fraserburgh, Aberdeenshire", "type" : "sand", "lon" : -1.993, "lat" : 57.681, "loc" : [ -1.993, 57.681 ] },
		{ "id" : 1355, "ref" : 401, "name" : "Fraserburgh. Philorth", "mainImg" : "geograph-360718-by-iain-macaulay.jpg", "address" : "Fraserburgh, Aberdeenshire", "type" : "sand", "lon" : -1.964451, "lat" : 57.67556, "loc" : [ -1.964451, 57.67556 ] },
		{ "id" : 1356, "ref" : 402, "name" : "Freathy", "mainImg" : "geograph-403099-by-brian.jpg", "address" : "Tregonhawke, Cornwall", "type" : "shingle, rock", "lon" : -4.27043, "lat" : 50.352325, "loc" : [ -4.27043, 50.352325 ] },
		{ "id" : 1357, "ref" : 403, "name" : "Freshwater East", "mainImg" : "geograph-1567293-by-robin-lucas.jpg", "address" : "Pembroke, Pembrokeshire", "type" : "sand", "lon" : -4.859227, "lat" : 51.644592, "loc" : [ -4.859227, 51.644592 ] },
		{ "id" : 1358, "ref" : 404, "name" : "Freshwater West", "mainImg" : "geograph-814497-by-william-matthews.jpg", "address" : "Pembroke, Pembrokeshire", "type" : "sand", "lon" : -5.062385, "lat" : 51.655655, "loc" : [ -5.062385, 51.655655 ] },
		{ "id" : 1359, "ref" : 405, "name" : "Frinton-on-Sea", "mainImg" : "geograph-1474016-by-nigel-cox.jpg", "address" : "Frinton on Sea, Essex", "type" : "sand", "lon" : 1.248965, "lat" : 51.827484, "loc" : [ 1.248965, 51.827484 ] },
		{ "id" : 1360, "ref" : 406, "name" : "Gairloch", "mainImg" : "geograph-498019-by-timble.jpg", "address" : "Gairloch, Highland", "type" : "sand", "lon" : -5.712279, "lat" : 57.728508, "loc" : [ -5.712279, 57.728508 ] },
		{ "id" : 1361, "ref" : 407, "name" : "Gairloch - Big Sand", "mainImg" : "geograph-631515-by-nigel-brown.jpg", "address" : "Gairloch, Highland", "type" : "sand", "lon" : -5.768039, "lat" : 57.73761, "loc" : [ -5.768039, 57.73761 ] },
		{ "id" : 1362, "ref" : 408, "name" : "Gairloch - Redpoint North", "mainImg" : "geograph-310073-by-wfmillar.jpg", "address" : "Gairloch, Highland", "type" : "sand, shingle", "lon" : -5.810424, "lat" : 57.65181, "loc" : [ -5.810424, 57.65181 ] },
		{ "id" : 1363, "ref" : 409, "name" : "Gammons Head", "mainImg" : "geograph-567829-by-martin-bodman.jpg", "address" : "Salcombe, Devon", "type" : "sand", "lon" : -3.729562, "lat" : 50.208706, "loc" : [ -3.729562, 50.208706 ] },
		{ "id" : 1364, "ref" : 410, "name" : "Ganavan", "mainImg" : "geograph-100991-by-peter-amsden.jpg", "address" : "Oban, Argyll & Bute", "type" : "sand", "lon" : -5.468617, "lat" : 56.439018, "loc" : [ -5.468617, 56.439018 ] },
		{ "id" : 1365, "ref" : 411, "name" : "Gansey Bay (Bay Ny Carrickey)", "mainImg" : "geograph-1849280-by-chris-gunns.jpg", "address" : "Port St Mary, Isle of Man", "type" : "sand", "lon" : -4.731803, "lat" : 54.076859, "loc" : [ -4.731803, 54.076859 ] },
		{ "id" : 1366, "ref" : 415, "name" : "Garwick", "mainImg" : "geograph-031788-by-jon-wornham.jpg", "address" : "Garwick, Isle of Man", "type" : "shingle, rock", "lon" : -4.401248, "lat" : 54.204224, "loc" : [ -4.401248, 54.204224 ] },
		{ "id" : 1367, "ref" : 416, "name" : "Gelliswick. Milford Haven", "mainImg" : "geograph-1416879-by-whatlep.jpg", "address" : "Milford Haven, Pembrokeshire", "type" : "sand, shingle", "lon" : -5.058738, "lat" : 51.70882, "loc" : [ -5.058738, 51.70882 ] },
		{ "id" : 1368, "ref" : 417, "name" : "Gilfach yr Halen", "mainImg" : "geograph-050089-by-cered.jpg", "address" : "Aberaeron, Ceredigion", "type" : "shingle, pebbles", "lon" : -4.29109, "lat" : 52.227787, "loc" : [ -4.29109, 52.227787 ] },
		{ "id" : 1369, "ref" : 418, "name" : "Girvan", "mainImg" : "geograph-1437747-by-pam-fray.jpg", "address" : "Girvan, South Ayrshire", "type" : "sand", "lon" : -4.86039, "lat" : 55.237282, "loc" : [ -4.86039, 55.237282 ] },
		{ "id" : 1370, "ref" : 419, "name" : "Glen Beach", "mainImg" : "geograph-566167-by-pauline-eccles.jpg", "address" : "Tenby, Pembrokeshire", "type" : "sand", "lon" : -4.69237, "lat" : 51.707901, "loc" : [ -4.69237, 51.707901 ] },
		{ "id" : 1371, "ref" : 420, "name" : "Glen Wyllin", "mainImg" : "geograph-031458-by-jon-wornham.jpg", "address" : "Kirk Michael, Isle of Man", "type" : "sand", "lon" : -4.596022, "lat" : 54.277504, "loc" : [ -4.596022, 54.277504 ] },
		{ "id" : 1372, "ref" : 421, "name" : "Glenarm", "mainImg" : "geograph-954784-by-kenneth-allen.jpg", "address" : "Glenarm, Antrim", "type" : "harbour, sand", "lon" : -5.941544, "lat" : 54.97027, "loc" : [ -5.941544, 54.97027 ] },
		{ "id" : 1373, "ref" : 423, "name" : "Golspie - North", "mainImg" : "geograph-1414043-by-andrew-wood.jpg", "address" : "Golspie, Highland", "type" : "sand, shingle, rock", "lon" : -3.976439, "lat" : 57.970577, "loc" : [ -3.976439, 57.970577 ] },
		{ "id" : 1374, "ref" : 424, "name" : "Golspie-South", "mainImg" : "geograph-1500501-by-dr-richard-murray.jpg", "address" : "Golspie, Highland", "type" : "sand, shingle, rock", "lon" : -3.979811, "lat" : 57.970528, "loc" : [ -3.979811, 57.970528 ] },
		{ "id" : 1375, "ref" : 425, "name" : "Goodrington Sands", "mainImg" : "geograph-295016-by-tony-atkin.jpg", "address" : "Torbay, Devon", "type" : "sand", "lon" : -3.557853, "lat" : 50.423412, "loc" : [ -3.557853, 50.423412 ] },
		{ "id" : 1376, "ref" : 426, "name" : "Goodwick - Harbour South", "mainImg" : "geograph-1531701-by-pauline-eccles.jpg", "address" : "Fishguard, Pembrokeshire", "type" : "sand", "lon" : -4.989924999999999, "lat" : 52.003826, "loc" : [ -4.989924999999999, 52.003826 ] },
		{ "id" : 1377, "ref" : 427, "name" : "Goodwick Sands", "mainImg" : "geograph-528368-by-ceridwen.jpg", "address" : "Fishguard, Pembrokeshire", "type" : "sand", "lon" : -4.989746999999999, "lat" : 52.001133, "loc" : [ -4.989746999999999, 52.001133 ] },
		{ "id" : 1378, "ref" : 428, "name" : "Goring Beach", "mainImg" : "geograph-072397-by-christine-matthews.jpg", "address" : "Worthing, West Sussex", "type" : "sand, shingle", "lon" : -0.427437, "lat" : 50.803707, "loc" : [ -0.427437, 50.803707 ] },
		{ "id" : 1379, "ref" : 429, "name" : "Gorleston Beach", "mainImg" : "geograph-1605179-by-chris-downer.jpg", "address" : "Gorleston on Sea, Norfolk", "type" : "sand", "lon" : 1.736625, "lat" : 52.566326, "loc" : [ 1.736625, 52.566326 ] },
		{ "id" : 1380, "ref" : 430, "name" : "Gorran Haven - Little Perhaver", "mainImg" : "geograph-1388666-by-trevor-rickard.jpg", "address" : "St Austell, Cornwall", "type" : "sand, shingle", "lon" : -4.786502, "lat" : 50.240246, "loc" : [ -4.786502, 50.240246 ] },
		{ "id" : 1381, "ref" : 431, "name" : "Gorran Haven - Vault Beach", "mainImg" : "geograph-025793-by-jim-champion.jpg", "address" : "St Austell, Cornwall", "type" : "sand, shingle", "lon" : -4.786575, "lat" : 50.234303, "loc" : [ -4.786575, 50.234303 ] },
		{ "id" : 1382, "ref" : 432, "name" : "Gosford Sands", "mainImg" : "geograph-1686280-by-jthomas.jpg", "address" : "Longniddry, East Lothian", "type" : "sand, shingle", "lon" : -2.883532, "lat" : 55.998131, "loc" : [ -2.883532, 55.998131 ] },
		{ "id" : 1383, "ref" : 433, "name" : "Gourock West Bay", "mainImg" : "geograph-859255-by-thomas-nugent.jpg", "address" : "Gourock, Inverclyde", "type" : "shingle", "lon" : -4.826035, "lat" : 55.958111, "loc" : [ -4.826035, 55.958111 ] },
		{ "id" : 1384, "ref" : 434, "name" : "Grandes Rocques", "mainImg" : "grandesrocques.gif", "address" : "Castel, Guernsey", "type" : "sand", "lon" : -2.59552, "lat" : 49.486498, "loc" : [ -2.59552, 49.486498 ] },
		{ "id" : 1385, "ref" : 435, "name" : "Grange-over-Sands & Kents Bank", "mainImg" : "geograph-629724-by-trevor-rickard.jpg", "address" : "Grange over Sands, Cumbria", "type" : "sand", "lon" : -2.911966, "lat" : 54.189644, "loc" : [ -2.911966, 54.189644 ] },
		{ "id" : 1386, "ref" : 436, "name" : "Grangetown", "mainImg" : "", "address" : "Sunderland, Sunderland", "type" : "sand, shingle", "lon" : -1.357583, "lat" : 54.892452, "loc" : [ -1.357583, 54.892452 ] },
		{ "id" : 1387, "ref" : 437, "name" : "Great Mattiscombe", "mainImg" : "geograph-064478-by-crispin-purdye.jpg", "address" : "Kingsbridge, Devon", "type" : "sand, rock", "lon" : -3.660701, "lat" : 50.243896, "loc" : [ -3.660701, 50.243896 ] },
		{ "id" : 1388, "ref" : 438, "name" : "Great Yarmouth - Power Station", "mainImg" : "geograph-292452-by-keith-evans.jpg", "address" : "Great Yarmouth, Norfolk", "type" : "sand", "lon" : 1.728137, "lat" : 52.588192, "loc" : [ 1.728137, 52.588192 ] },
		{ "id" : 1389, "ref" : 439, "name" : "Great Yarmouth - S. Denes", "mainImg" : "geograph-1582559-by-martin-thirkettle.jpg", "address" : "Great Yarmouth, Norfolk", "type" : "sand", "lon" : 1.742102, "lat" : 52.578751, "loc" : [ 1.742102, 52.578751 ] },
		{ "id" : 1390, "ref" : 440, "name" : "Great Yarmouth North", "mainImg" : "geograph-771287-by-trish-steel.jpg", "address" : "Great Yarmouth, Norfolk", "type" : "sand", "lon" : 1.74671, "lat" : 52.632584, "loc" : [ 1.74671, 52.632584 ] },
		{ "id" : 1391, "ref" : 441, "name" : "Great Yarmouth-Pier (Marina Leisure centre)", "mainImg" : "geograph-024668-by-garyreggae.jpg", "address" : "Great Yarmouth, Norfolk", "type" : "sand", "lon" : 1.741373, "lat" : 52.604862, "loc" : [ 1.741373, 52.604862 ] },
		{ "id" : 1392, "ref" : 442, "name" : "Great Yarmouth-South", "mainImg" : "geograph-1603772-by-chris-downer.jpg", "address" : "Great Yarmouth, Norfolk", "type" : "sand", "lon" : 1.740606, "lat" : 52.59589, "loc" : [ 1.740606, 52.59589 ] },
		{ "id" : 1393, "ref" : 443, "name" : "Greatstone Beach", "mainImg" : "geograph-1322935-by-simon-carey.jpg", "address" : "New Romney, Kent", "type" : "sand", "lon" : 0.965565, "lat" : 50.967293, "loc" : [ 0.965565, 50.967293 ] },
		{ "id" : 1394, "ref" : 444, "name" : "Green Island", "mainImg" : "greenisland.gif", "address" : "St Helier, Jersey", "type" : "sand", "lon" : -2.122593, "lat" : 49.190649, "loc" : [ -2.122593, 49.190649 ] },
		{ "id" : 1395, "ref" : 445, "name" : "Greenan", "mainImg" : "geograph-960545-by-hamish-kirkpatrick.jpg", "address" : "Ayr, South Ayrshire", "type" : "sand", "lon" : -4.668562, "lat" : 55.438419, "loc" : [ -4.668562, 55.438419 ] },
		{ "id" : 1396, "ref" : 446, "name" : "Greenaway Beach", "mainImg" : "geograph-1473406-by-andy-f(2).jpg", "address" : "Polzeath, Cornwall", "type" : "sand, rock", "lon" : -4.924989, "lat" : 50.569794, "loc" : [ -4.924989, 50.569794 ] },
		{ "id" : 1397, "ref" : 447, "name" : "Greve de Lecq", "mainImg" : "greve2.gif", "address" : "St Mary, Jersey", "type" : "sand", "lon" : -2.201, "lat" : 49.247, "loc" : [ -2.201, 49.247 ] },
		{ "id" : 1398, "ref" : 449, "name" : "Groomsport", "mainImg" : "geograph-208017-by-albert-bridge.jpg", "address" : "Bangor, Down", "type" : "sand", "lon" : -5.61264, "lat" : 54.674519, "loc" : [ -5.61264, 54.674519 ] },
		{ "id" : 1399, "ref" : 450, "name" : "Grouville", "mainImg" : "grouville.gif", "address" : "Grouville, Jersey", "type" : "sand", "lon" : -2.032127, "lat" : 49.180215, "loc" : [ -2.032127, 49.180215 ] },
		{ "id" : 1400, "ref" : 451, "name" : "Gruinard Beach", "mainImg" : "geograph-912042-by-tom-pennington.jpg", "address" : "Gairloch, Highland", "type" : "sand", "lon" : -5.453849, "lat" : 57.85759, "loc" : [ -5.453849, 57.85759 ] },
		{ "id" : 1401, "ref" : 452, "name" : "Gullane", "mainImg" : "geograph-1638944-by-alan-murray-rust.jpg", "address" : "Gullane, East Lothian", "type" : "sand", "lon" : -2.842899, "lat" : 56.039932, "loc" : [ -2.842899, 56.039932 ] },
		{ "id" : 1402, "ref" : 453, "name" : "Gunwalloe Cove", "mainImg" : "geograph-266924-by-tony-atkin.jpg", "address" : "Helston, Cornwall", "type" : "sand, pebbles", "lon" : -5.277875, "lat" : 50.055656, "loc" : [ -5.277875, 50.055656 ] },
		{ "id" : 1403, "ref" : 454, "name" : "Gurnard", "mainImg" : "geograph-1043129-by-shaun-ferguson.jpg", "address" : "Cowes, Isle of Wight", "type" : "sand, shingle", "lon" : -1.323634, "lat" : 50.760162, "loc" : [ -1.323634, 50.760162 ] },
		{ "id" : 1404, "ref" : 455, "name" : "Gwbert-on-Sea at Craig y Gwent", "mainImg" : "", "address" : "Cardigan, Ceredigion", "type" : "sand, rock", "lon" : -4.689381, "lat" : 52.1199, "loc" : [ -4.689381, 52.1199 ] },
		{ "id" : 1405, "ref" : 457, "name" : "Gwenver beach", "mainImg" : "geograph-081699-by-sheila-russell.jpg", "address" : "St Just, Cornwall", "type" : "sand", "lon" : -5.689, "lat" : 50.089, "loc" : [ -5.689, 50.089 ] },
		{ "id" : 1406, "ref" : 456, "name" : "Gwithian beach", "mainImg" : "geograph-186462-by-sheila-russell.jpg", "address" : "Hayle, Cornwall", "type" : "sand", "lon" : -5.4, "lat" : 50.223, "loc" : [ -5.4, 50.223 ] },
		{ "id" : 1407, "ref" : 458, "name" : "Gyllyngvase", "mainImg" : "geograph-462669-by-kenneth-allen.jpg", "address" : "Falmouth, Cornwall", "type" : "sand", "lon" : -5.066872, "lat" : 50.143303, "loc" : [ -5.066872, 50.143303 ] },
		{ "id" : 1408, "ref" : 459, "name" : "Hall Road West. Crosby", "mainImg" : "geograph-1073631-by-john-darch.jpg", "address" : "Bootle, Sefton", "type" : "sand", "lon" : -3.057973, "lat" : 53.481884, "loc" : [ -3.057973, 53.481884 ] },
		{ "id" : 1409, "ref" : 460, "name" : "Hallsands", "mainImg" : "geograph-1490716-by-derek-harper.jpg", "address" : "Salcombe, Devon", "type" : "shingle", "lon" : -3.657651, "lat" : 50.236744, "loc" : [ -3.657651, 50.236744 ] },
		{ "id" : 1410, "ref" : 461, "name" : "Hampton Pier - East", "mainImg" : "geograph-1457721-by-nigel-chadwick.jpg", "address" : "Herne Bay, Kent", "type" : "sand, pebbles, mud", "lon" : 1.146, "lat" : 51.373, "loc" : [ 1.146, 51.373 ] },
		{ "id" : 1411, "ref" : 462, "name" : "Hampton Pier - West", "mainImg" : "geograph-1251523-by-david-anstiss.jpg", "address" : "Herne Bay, Kent", "type" : "sand, shingle", "lon" : 1.11, "lat" : 51.372, "loc" : [ 1.11, 51.372 ] },
		{ "id" : 1412, "ref" : 463, "name" : "Harlech", "mainImg" : "geograph-232203-by-ds-pugh.jpg", "address" : "Harlech, Gwynedd", "type" : "sand", "lon" : -4.127923, "lat" : 52.861393, "loc" : [ -4.127923, 52.861393 ] },
		{ "id" : 1413, "ref" : 464, "name" : "Harlyn Bay", "mainImg" : "796185_f54c2ad5_darren_rosson.jpg", "address" : "Padstow, Cornwall", "type" : "sand", "lon" : -4.996552, "lat" : 50.540085, "loc" : [ -4.996552, 50.540085 ] },
		{ "id" : 1414, "ref" : 465, "name" : "Hartland Quay", "mainImg" : "geograph-1416235-by-steve-daniels.jpg", "address" : "Bideford, Devon", "type" : "pebbles, rock", "lon" : -4.532581, "lat" : 50.995029, "loc" : [ -4.532581, 50.995029 ] },
		{ "id" : 1415, "ref" : 466, "name" : "Hartlepool North Sands", "mainImg" : "hartlepool.gif", "address" : "Hartlepool, Hartlepool", "type" : "sand", "lon" : -1.203746, "lat" : 54.707298, "loc" : [ -1.203746, 54.707298 ] },
		{ "id" : 1416, "ref" : 467, "name" : "Harwich - Beacon Hill", "mainImg" : "", "address" : "Harwich, Essex", "type" : "shingle", "lon" : 1.2854, "lat" : 51.936896, "loc" : [ 1.2854, 51.936896 ] },
		{ "id" : 1417, "ref" : 468, "name" : "Harwich - Sailing Club", "mainImg" : "", "address" : "Harwich, Essex", "type" : "harbour, shingle", "lon" : 1.293155, "lat" : 51.945362, "loc" : [ 1.293155, 51.945362 ] },
		{ "id" : 1418, "ref" : 469, "name" : "Hastings", "mainImg" : "geograph-1190354-by-nigel-chadwick.jpg", "address" : "Hastings, East Sussex", "type" : "sand, shingle", "lon" : 0.5845699999999999, "lat" : 50.853111, "loc" : [ 0.5845699999999999, 50.853111 ] },
		{ "id" : 1419, "ref" : 470, "name" : "Hastings - Bulverhythe", "mainImg" : "geograph-526258-by-simon-carey.jpg", "address" : "Hastings, East Sussex", "type" : "sand, shingle", "lon" : 0.534598, "lat" : 50.84882, "loc" : [ 0.534598, 50.84882 ] },
		{ "id" : 1420, "ref" : 471, "name" : "Hastings - Fairlight Glen", "mainImg" : "geograph-1191897-by-oast-house-archive.jpg", "address" : "Hastings, East Sussex", "type" : "sand, shingle", "lon" : 0.639259, "lat" : 50.865387, "loc" : [ 0.639259, 50.865387 ] },
		{ "id" : 1421, "ref" : 472, "name" : "Havelet Bay", "mainImg" : "havelet.gif", "address" : "St Peter Port, Guernsey", "type" : "sand, shingle", "lon" : -2.534065, "lat" : 49.454371, "loc" : [ -2.534065, 49.454371 ] },
		{ "id" : 1422, "ref" : 473, "name" : "Haverigg", "mainImg" : "geograph-643456-by-andrew-hill.jpg", "address" : "Barrow in Furness, Cumbria", "type" : "sand", "lon" : -3.287468, "lat" : 54.188915, "loc" : [ -3.287468, 54.188915 ] },
		{ "id" : 1423, "ref" : 474, "name" : "Havre des Pas", "mainImg" : "harvedespas.gif", "address" : "St Helier, Jersey", "type" : "sand", "lon" : -2.098389, "lat" : 49.176624, "loc" : [ -2.098389, 49.176624 ] },
		{ "id" : 1424, "ref" : 475, "name" : "Hayling Island - West Beachlands", "mainImg" : "geograph-1532833-by-shazz.jpg", "address" : "Portsmouth, Hampshire", "type" : "pebbles", "lon" : -0.987779, "lat" : 50.783005, "loc" : [ -0.987779, 50.783005 ] },
		{ "id" : 1425, "ref" : 476, "name" : "Hayling Island - West Hayling", "mainImg" : "geograph-111413-by-footprints.jpg", "address" : "Portsmouth, Hampshire", "type" : "pebbles", "lon" : -0.9998469999999999, "lat" : 50.783016, "loc" : [ -0.9998469999999999, 50.783016 ] },
		{ "id" : 1426, "ref" : 477, "name" : "Hayling Island - West of Eastoke", "mainImg" : "geograph-1291680-by-chris-gunns.jpg", "address" : "Portsmouth, Hampshire", "type" : "sand, pebbles", "lon" : -0.965861, "lat" : 50.780029, "loc" : [ -0.965861, 50.780029 ] },
		{ "id" : 1427, "ref" : 478, "name" : "Heacham - S.Sands Club", "mainImg" : "geograph-1492356-by-richard-croft.jpg", "address" : "Kings Lynn, Norfolk", "type" : "sand", "lon" : 0.473245, "lat" : 52.90884, "loc" : [ 0.473245, 52.90884 ] },